[{"id": "Txm8KtUh9Mn2E7980jTr5g", "alias": "dhamaka-new-york", "name": "Dhamaka", "image_url": "https://s3-media4.fl.yelpcdn.com/bphoto/O7stEzZk8voLk4xukAfngw/o.jpg", "is_closed": false, "url": "https://www.yelp.com/biz/dhamaka-new-york?adjust_creative=mOPdvnzKepQ7kZcAAeJlhA&utm_campaign=yelp_api_v3&utm_medium=api_v3_business_search&utm_source=mOPdvnzKepQ7kZcAAeJlhA", "review_count": 293, "categories": [{"alias": "indpak", "title": "Indian"}], "rating": 4.0, "coordinates": {"latitude": 40.7180658, "longitude": -73.9881304}, "transactions": ["delivery"], "price": "$$$", "location": {"address1": "119 Delancey St", "address2": "Essex Market, Store  34", "address3": null, "city": "New York", "zip_code": "10002", "country": "US", "state": "NY", "display_address": ["119 Delancey St", "Essex Market, Store  34", "New York, NY 10002"]}, "phone": "+12122048616", "display_phone": "(212) 204-8616", "distance": 271.0657397015328}, {"id": "_7BGw3YFNOTzP1Www3zB7g", "alias": "mughlai-grill-new-york", "name": "Mughlai Grill", "image_url": "https://s3-media3.fl.yelpcdn.com/bphoto/R0MIGOkyV5I4sDlZLRVK3A/o.jpg", "is_closed": false, "url": "https://www.yelp.com/biz/mughlai-grill-new-york?adjust_creative=mOPdvnzKepQ7kZcAAeJlhA&utm_campaign=yelp_api_v3&utm_medium=api_v3_business_search&utm_source=mOPdvnzKepQ7kZcAAeJlhA", "review_count": 471, "categories": [{"alias": "indpak", "title": "Indian"}], "rating": 4.5, "coordinates": {"latitude": 40.7210905, "longitude": -73.9840446}, "transactions": ["delivery", "pickup", "restaurant_reservation"], "price": "$$", "location": {"address1": "6 Clinton St", "address2": "", "address3": null, "city": "New York", "zip_code": "10002", "country": "US", "state": "NY", "display_address": ["6 Clinton St", "New York, NY 10002"]}, "phone": "+12125332828", "display_phone": "(212) 533-2828", "distance": 512.5312793059117}, {"id": "Xqk91WuhMeYS4pedccUYgA", "alias": "gazab-new-york", "name": "Gazab", "image_url": "https://s3-media3.fl.yelpcdn.com/bphoto/AuOMEQT6_UKD95-jNcYDLA/o.jpg", "is_closed": false, "url": "https://www.yelp.com/biz/gazab-new-york?adjust_creative=mOPdvnzKepQ7kZcAAeJlhA&utm_campaign=yelp_api_v3&utm_medium=api_v3_business_search&utm_source=mOPdvnzKepQ7kZcAAeJlhA", "review_count": 157, "categories": [{"alias": "indpak", "title": "Indian"}], "rating": 4.5, "coordinates": {"latitude": 40.72191, "longitude": -73.98666}, "transactions": ["delivery", "pickup"], "location": {"address1": "179 Essex St", "address2": "", "address3": null, "city": "New York", "zip_code": "10002", "country": "US", "state": "NY", "display_address": ["179 Essex St", "New York, NY 10002"]}, "phone": "+19173882664", "display_phone": "(917) 388-2664", "distance": 597.0031671170208}, {"id": "zyQpS4QrYYB0VKXf7JPUlQ", "alias": "atithi-indian-cuisine-brooklyn", "name": "Atithi Indian Cuisine", "image_url": "https://s3-media1.fl.yelpcdn.com/bphoto/1HW_F-lSeaI6VTatFmd8zA/o.jpg", "is_closed": false, "url": "https://www.yelp.com/biz/atithi-indian-cuisine-brooklyn?adjust_creative=mOPdvnzKepQ7kZcAAeJlhA&utm_campaign=yelp_api_v3&utm_medium=api_v3_business_search&utm_source=mOPdvnzKepQ7kZcAAeJlhA", "review_count": 146, "categories": [{"alias": "indpak", "title": "Indian"}], "rating": 5.0, "coordinates": {"latitude": 40.714765, "longitude": -73.961606}, "transactions": ["delivery", "pickup", "restaurant_reservation"], "price": "$$", "location": {"address1": "159 Grand St", "address2": null, "address3": "", "city": "Brooklyn", "zip_code": "11249", "country": "US", "state": "NY", "display_address": ["159 Grand St", "Brooklyn, NY 11249"]}, "phone": "+17186849192", "display_phone": "(718) 684-9192", "distance": 2029.5364881898447}, {"id": "7DUPGtHqVZHJ3yIufbWLsg", "alias": "malai-marke-indian-cuisine-new-york", "name": "Malai Marke Indian Cuisine", "image_url": "https://s3-media1.fl.yelpcdn.com/bphoto/jKKQcL3nCVngME5d3WMQIg/o.jpg", "is_closed": false, "url": "https://www.yelp.com/biz/malai-marke-indian-cuisine-new-york?adjust_creative=mOPdvnzKepQ7kZcAAeJlhA&utm_campaign=yelp_api_v3&utm_medium=api_v3_business_search&utm_source=mOPdvnzKepQ7kZcAAeJlhA", "review_count": 631, "categories": [{"alias": "indpak", "title": "Indian"}], "rating": 4.0, "coordinates": {"latitude": 40.726934, "longitude": -73.98758}, "transactions": ["delivery", "pickup"], "price": "$$", "location": {"address1": "318 E 6th St", "address2": null, "address3": "", "city": "New York", "zip_code": "10003", "country": "US", "state": "NY", "display_address": ["318 E 6th St", "New York, NY 10003"]}, "phone": "+12127777729", "display_phone": "(212) 777-7729", "distance": 1159.4300823146555}, {"id": "jYhbUh1TV7SCfPxjIhVpcg", "alias": "baar-baar-new-york-2", "name": "Baar Baar", "image_url": "https://s3-media2.fl.yelpcdn.com/bphoto/SyvAUAWoWwKM_2b52r-WIg/o.jpg", "is_closed": false, "url": "https://www.yelp.com/biz/baar-baar-new-york-2?adjust_creative=mOPdvnzKepQ7kZcAAeJlhA&utm_campaign=yelp_api_v3&utm_medium=api_v3_business_search&utm_source=mOPdvnzKepQ7kZcAAeJlhA", "review_count": 1117, "categories": [{"alias": "gastropubs", "title": "Gastropubs"}, {"alias": "indpak", "title": "Indian"}, {"alias": "cocktailbars", "title": "Cocktail Bars"}], "rating": 4.0, "coordinates": {"latitude": 40.7244378855031, "longitude": -73.9915524}, "transactions": ["delivery", "pickup", "restaurant_reservation"], "price": "$$$", "location": {"address1": "13 E 1st St", "address2": "", "address3": "", "city": "New York", "zip_code": "10003", "country": "US", "state": "NY", "display_address": ["13 E 1st St", "New York, NY 10003"]}, "phone": "+12122281200", "display_phone": "(212) 228-1200", "distance": 1006.0301118512845}, {"id": "PdzL9svqapSqH4o8bF86Pw", "alias": "punjabi-grocery-and-deli-new-york", "name": "Punjabi Grocery & Deli", "image_url": "https://s3-media3.fl.yelpcdn.com/bphoto/R0fHwVmDFShE5a3psYmtCw/o.jpg", "is_closed": false, "url": "https://www.yelp.com/biz/punjabi-grocery-and-deli-new-york?adjust_creative=mOPdvnzKepQ7kZcAAeJlhA&utm_campaign=yelp_api_v3&utm_medium=api_v3_business_search&utm_source=mOPdvnzKepQ7kZcAAeJlhA", "review_count": 445, "categories": [{"alias": "indpak", "title": "Indian"}, {"alias": "grocery", "title": "Grocery"}, {"alias": "delis", "title": "Delis"}], "rating": 4.5, "coordinates": {"latitude": 40.7227225423661, "longitude": -73.9866224576721}, "transactions": ["delivery"], "price": "$", "location": {"address1": "114 E 1st St", "address2": "", "address3": "", "city": "New York", "zip_code": "10009", "country": "US", "state": "NY", "display_address": ["114 E 1st St", "New York, NY 10009"]}, "phone": "+12125333356", "display_phone": "(212) 533-3356", "distance": 684.4261646370076}, {"id": "Z_fT0KLZV3y80LHUMlmbig", "alias": "khiladi-nyc-new-york", "name": "Khiladi NYC", "image_url": "https://s3-media2.fl.yelpcdn.com/bphoto/_0BUSt6XEZ1bLtsEQCd2EA/o.jpg", "is_closed": false, "url": "https://www.yelp.com/biz/khiladi-nyc-new-york?adjust_creative=mOPdvnzKepQ7kZcAAeJlhA&utm_campaign=yelp_api_v3&utm_medium=api_v3_business_search&utm_source=mOPdvnzKepQ7kZcAAeJlhA", "review_count": 187, "categories": [{"alias": "indpak", "title": "Indian"}], "rating": 4.5, "coordinates": {"latitude": 40.727536, "longitude": -73.97926}, "transactions": ["delivery", "pickup"], "location": {"address1": "175 Avenue B", "address2": "", "address3": null, "city": "New York", "zip_code": "10009", "country": "US", "state": "NY", "display_address": ["175 Avenue B", "New York, NY 10009"]}, "phone": "+16467910351", "display_phone": "(646) 791-0351", "distance": 1320.6116924773255}, {"id": "xWVHj2XNcxEg79Nkb5Zb6Q", "alias": "semma-new-york-2", "name": "Semma", "image_url": "https://s3-media2.fl.yelpcdn.com/bphoto/1UHj8ZaeO65yp9Nnuxv60w/o.jpg", "is_closed": false, "url": "https://www.yelp.com/biz/semma-new-york-2?adjust_creative=mOPdvnzKepQ7kZcAAeJlhA&utm_campaign=yelp_api_v3&utm_medium=api_v3_business_search&utm_source=mOPdvnzKepQ7kZcAAeJlhA", "review_count": 136, "categories": [{"alias": "indpak", "title": "Indian"}, {"alias": "wine_bars", "title": "Wine Bars"}, {"alias": "cocktailbars", "title": "Cocktail Bars"}], "rating": 4.5, "coordinates": {"latitude": 40.736054206102615, "longitude": -74.0005639}, "transactions": [], "price": "$$$$", "location": {"address1": "60 Greenwich Ave", "address2": "", "address3": null, "city": "New York", "zip_code": "10011", "country": "US", "state": "NY", "display_address": ["60 Greenwich Ave", "New York, NY 10011"]}, "phone": "+12123738900", "display_phone": "(212) 373-8900", "distance": 2504.3606295647655}, {"id": "ZRzG614HER-6fhZ3-MrEHw", "alias": "tagmo-new-york", "name": "TAGMO", "image_url": "https://s3-media2.fl.yelpcdn.com/bphoto/x2lWsl7MTyD27OgDlhjyWQ/o.jpg", "is_closed": false, "url": "https://www.yelp.com/biz/tagmo-new-york?adjust_creative=mOPdvnzKepQ7kZcAAeJlhA&utm_campaign=yelp_api_v3&utm_medium=api_v3_business_search&utm_source=mOPdvnzKepQ7kZcAAeJlhA", "review_count": 50, "categories": [{"alias": "indpak", "title": "Indian"}], "rating": 4.5, "coordinates": {"latitude": 40.70762, "longitude": -74.00214}, "transactions": ["delivery", "pickup"], "price": "$$", "location": {"address1": "226 Front St", "address2": null, "address3": "", "city": "New York", "zip_code": "10038", "country": "US", "state": "NY", "display_address": ["226 Front St", "New York, NY 10038"]}, "phone": "+12122852253", "display_phone": "(212) 285-2253", "distance": 1721.371500021968}, {"id": "so3ReIE_QdVjeCsRhCCLLg", "alias": "kolkata-chai-cafe-new-york", "name": "Kolkata Chai Cafe", "image_url": "https://s3-media4.fl.yelpcdn.com/bphoto/atIgTUv8UgmxZdBWdv3d0w/o.jpg", "is_closed": false, "url": "https://www.yelp.com/biz/kolkata-chai-cafe-new-york?adjust_creative=mOPdvnzKepQ7kZcAAeJlhA&utm_campaign=yelp_api_v3&utm_medium=api_v3_business_search&utm_source=mOPdvnzKepQ7kZcAAeJlhA", "review_count": 83, "categories": [{"alias": "coffee", "title": "Coffee & Tea"}, {"alias": "indpak", "title": "Indian"}], "rating": 4.0, "coordinates": {"latitude": 40.72291487086537, "longitude": -73.98321706640796}, "transactions": ["delivery"], "price": "$", "location": {"address1": "199 E 3rd St", "address2": "", "address3": null, "city": "New York", "zip_code": "10009", "country": "US", "state": "NY", "display_address": ["199 E 3rd St", "New York, NY 10009"]}, "phone": "+16468923023", "display_phone": "(646) 892-3023", "distance": 726.5245699875192}, {"id": "_z2_1TE_1brlvljiGtJ4mA", "alias": "aahar-indian-cuisine-new-york", "name": "Aahar Indian Cuisine", "image_url": "https://s3-media2.fl.yelpcdn.com/bphoto/V5QIjldzSDuXfIERTyDSUQ/o.jpg", "is_closed": false, "url": "https://www.yelp.com/biz/aahar-indian-cuisine-new-york?adjust_creative=mOPdvnzKepQ7kZcAAeJlhA&utm_campaign=yelp_api_v3&utm_medium=api_v3_business_search&utm_source=mOPdvnzKepQ7kZcAAeJlhA", "review_count": 411, "categories": [{"alias": "indpak", "title": "Indian"}], "rating": 4.5, "coordinates": {"latitude": 40.71334, "longitude": -74.0081}, "transactions": ["delivery", "pickup"], "price": "$$", "location": {"address1": "10 Murray St", "address2": null, "address3": "", "city": "New York", "zip_code": "10007", "country": "US", "state": "NY", "display_address": ["10 Murray St", "New York, NY 10007"]}, "phone": "+16466493374", "display_phone": "(646) 649-3374", "distance": 1943.4960049059757}, {"id": "1SgiWHlFN5mp5gNLSGx2Ww", "alias": "panna-ii-garden-indian-restaurant-new-york", "name": "Panna II Garden Indian Restaurant", "image_url": "https://s3-media3.fl.yelpcdn.com/bphoto/ANaKH1CzcKE70lKb8c7HXw/o.jpg", "is_closed": false, "url": "https://www.yelp.com/biz/panna-ii-garden-indian-restaurant-new-york?adjust_creative=mOPdvnzKepQ7kZcAAeJlhA&utm_campaign=yelp_api_v3&utm_medium=api_v3_business_search&utm_source=mOPdvnzKepQ7kZcAAeJlhA", "review_count": 1149, "categories": [{"alias": "indpak", "title": "Indian"}], "rating": 3.0, "coordinates": {"latitude": 40.72626, "longitude": -73.9865}, "transactions": ["delivery", "pickup"], "price": "$$", "location": {"address1": "93 1st Ave", "address2": "", "address3": "", "city": "New York", "zip_code": "10003", "country": "US", "state": "NY", "display_address": ["93 1st Ave", "New York, NY 10003"]}, "phone": "+12125984610", "display_phone": "(212) 598-4610", "distance": 1078.2094646167625}, {"id": "noBCTbD1Ylf5QR7PXy-rkA", "alias": "cafe-himalaya-new-york-2", "name": "Cafe Himalaya", "image_url": "https://s3-media3.fl.yelpcdn.com/bphoto/SPjTRhdYULveQZlZOzlSDQ/o.jpg", "is_closed": false, "url": "https://www.yelp.com/biz/cafe-himalaya-new-york-2?adjust_creative=mOPdvnzKepQ7kZcAAeJlhA&utm_campaign=yelp_api_v3&utm_medium=api_v3_business_search&utm_source=mOPdvnzKepQ7kZcAAeJlhA", "review_count": 659, "categories": [{"alias": "himalayan", "title": "Himalayan/Nepalese"}], "rating": 4.0, "coordinates": {"latitude": 40.7232289034083, "longitude": -73.9879441220901}, "transactions": ["delivery", "pickup"], "price": "$$", "location": {"address1": "78 E 1st St", "address2": "", "address3": "", "city": "New York", "zip_code": "10009", "country": "US", "state": "NY", "display_address": ["78 E 1st St", "New York, NY 10009"]}, "phone": "+12123580160", "display_phone": "(212) 358-0160", "distance": 762.0690579798046}, {"id": "ByJBXa3HwPqw8eSPfDObkg", "alias": "mint-heights-brooklyn", "name": "Mint Heights", "image_url": "https://s3-media2.fl.yelpcdn.com/bphoto/bQpEp3wOsq2taHiNbpIrTg/o.jpg", "is_closed": false, "url": "https://www.yelp.com/biz/mint-heights-brooklyn?adjust_creative=mOPdvnzKepQ7kZcAAeJlhA&utm_campaign=yelp_api_v3&utm_medium=api_v3_business_search&utm_source=mOPdvnzKepQ7kZcAAeJlhA", "review_count": 83, "categories": [{"alias": "indpak", "title": "Indian"}], "rating": 4.5, "coordinates": {"latitude": 40.699657772028765, "longitude": -73.99217437260721}, "transactions": ["delivery", "pickup"], "location": {"address1": "46 Henry St", "address2": "", "address3": null, "city": "Brooklyn", "zip_code": "11201", "country": "US", "state": "NY", "display_address": ["46 Henry St", "Brooklyn, NY 11201"]}, "phone": "+13479160325", "display_phone": "(347) 916-0325", "distance": 1967.560310430172}, {"id": "9MO5UogFuvqAriOA9RlqKA", "alias": "saravana-bhavan-new-york-4", "name": "Saravana Bhavan", "image_url": "https://s3-media3.fl.yelpcdn.com/bphoto/3PGlwv7VF3ekdj9b-8cJEg/o.jpg", "is_closed": false, "url": "https://www.yelp.com/biz/saravana-bhavan-new-york-4?adjust_creative=mOPdvnzKepQ7kZcAAeJlhA&utm_campaign=yelp_api_v3&utm_medium=api_v3_business_search&utm_source=mOPdvnzKepQ7kZcAAeJlhA", "review_count": 7, "categories": [{"alias": "vegetarian", "title": "Vegetarian"}], "rating": 4.0, "coordinates": {"latitude": 40.7038, "longitude": -74.00816}, "transactions": ["delivery", "pickup"], "location": {"address1": "32 Old Slip", "address2": "", "address3": null, "city": "New York", "zip_code": "10005", "country": "US", "state": "NY", "display_address": ["32 Old Slip", "New York, NY 10005"]}, "phone": "+19175133582", "display_phone": "(917) 513-3582", "distance": 2362.530502115647}, {"id": "ZwER8TyQH70ACI-nIG682g", "alias": "chote-miya-brooklyn", "name": "Chote Miya", "image_url": "https://s3-media1.fl.yelpcdn.com/bphoto/OxrpHzIoYHmsCpxjOBczaA/o.jpg", "is_closed": false, "url": "https://www.yelp.com/biz/chote-miya-brooklyn?adjust_creative=mOPdvnzKepQ7kZcAAeJlhA&utm_campaign=yelp_api_v3&utm_medium=api_v3_business_search&utm_source=mOPdvnzKepQ7kZcAAeJlhA", "review_count": 34, "categories": [{"alias": "indpak", "title": "Indian"}], "rating": 4.0, "coordinates": {"latitude": 40.7034194804375, "longitude": -73.9916073158383}, "transactions": ["delivery"], "location": {"address1": "55 Water St", "address2": "", "address3": null, "city": "Brooklyn", "zip_code": "11201", "country": "US", "state": "NY", "display_address": ["55 Water St", "Brooklyn, NY 11201"]}, "phone": "", "display_phone": "", "distance": 1554.6619995193048}, {"id": "GaxVczLK1qUuJHOP9VcFsQ", "alias": "ananda-new-york-4", "name": "Ananda", "image_url": "https://s3-media2.fl.yelpcdn.com/bphoto/BcEKtAx2k7Lp306o1i_tCw/o.jpg", "is_closed": false, "url": "https://www.yelp.com/biz/ananda-new-york-4?adjust_creative=mOPdvnzKepQ7kZcAAeJlhA&utm_campaign=yelp_api_v3&utm_medium=api_v3_business_search&utm_source=mOPdvnzKepQ7kZcAAeJlhA", "review_count": 376, "categories": [{"alias": "indpak", "title": "Indian"}, {"alias": "vegetarian", "title": "Vegetarian"}, {"alias": "kosher", "title": "Kosher"}], "rating": 4.0, "coordinates": {"latitude": 40.728724, "longitude": -73.999147}, "transactions": ["delivery", "pickup"], "price": "$$", "location": {"address1": "210 Thompson St", "address2": null, "address3": "", "city": "New York", "zip_code": "10012", "country": "US", "state": "NY", "display_address": ["210 Thompson St", "New York, NY 10012"]}, "phone": "+12125337290", "display_phone": "(212) 533-7290", "distance": 1768.6777842011606}, {"id": "CVpha6hKVu_r1lx6JxNIPg", "alias": "veeray-da-dhaba-new-york", "name": "Veeray da Dhaba", "image_url": "https://s3-media2.fl.yelpcdn.com/bphoto/98QPMm6bmTxSLq92BfJASA/o.jpg", "is_closed": false, "url": "https://www.yelp.com/biz/veeray-da-dhaba-new-york?adjust_creative=mOPdvnzKepQ7kZcAAeJlhA&utm_campaign=yelp_api_v3&utm_medium=api_v3_business_search&utm_source=mOPdvnzKepQ7kZcAAeJlhA", "review_count": 78, "categories": [{"alias": "indpak", "title": "Indian"}], "rating": 4.5, "coordinates": {"latitude": 40.730819, "longitude": -73.982723}, "transactions": ["delivery", "pickup"], "location": {"address1": "222 1st Ave", "address2": null, "address3": "", "city": "New York", "zip_code": "10009", "country": "US", "state": "NY", "display_address": ["222 1st Ave", "New York, NY 10009"]}, "phone": "+12127771420", "display_phone": "(212) 777-1420", "distance": 1593.709730528672}, {"id": "iXSuNKKUBIrBX7zUerlQDQ", "alias": "benares-new-york-3", "name": "Benares", "image_url": "https://s3-media3.fl.yelpcdn.com/bphoto/02ev2tUDuz86hPhPxMEgFQ/o.jpg", "is_closed": false, "url": "https://www.yelp.com/biz/benares-new-york-3?adjust_creative=mOPdvnzKepQ7kZcAAeJlhA&utm_campaign=yelp_api_v3&utm_medium=api_v3_business_search&utm_source=mOPdvnzKepQ7kZcAAeJlhA", "review_count": 610, "categories": [{"alias": "indpak", "title": "Indian"}], "rating": 4.0, "coordinates": {"latitude": 40.71415, "longitude": -74.009209}, "transactions": ["delivery", "pickup"], "price": "$$", "location": {"address1": "45 Murray St", "address2": "", "address3": null, "city": "New York", "zip_code": "10007", "country": "US", "state": "NY", "display_address": ["45 Murray St", "New York, NY 10007"]}, "phone": "+12127664900", "display_phone": "(212) 766-4900", "distance": 2013.8315159843996}, {"id": "iXSuNKKUBIrBX7zUerlQDQ", "alias": "benares-new-york-3", "name": "Benares", "image_url": "https://s3-media3.fl.yelpcdn.com/bphoto/02ev2tUDuz86hPhPxMEgFQ/o.jpg", "is_closed": false, "url": "https://www.yelp.com/biz/benares-new-york-3?adjust_creative=mOPdvnzKepQ7kZcAAeJlhA&utm_campaign=yelp_api_v3&utm_medium=api_v3_business_search&utm_source=mOPdvnzKepQ7kZcAAeJlhA", "review_count": 610, "categories": [{"alias": "indpak", "title": "Indian"}], "rating": 4.0, "coordinates": {"latitude": 40.71415, "longitude": -74.009209}, "transactions": ["delivery", "pickup"], "price": "$$", "location": {"address1": "45 Murray St", "address2": "", "address3": null, "city": "New York", "zip_code": "10007", "country": "US", "state": "NY", "display_address": ["45 Murray St", "New York, NY 10007"]}, "phone": "+12127664900", "display_phone": "(212) 766-4900", "distance": 2013.8315159843996}, {"id": "fCxjrytrEw_l9vGjSCzszg", "alias": "paisley-new-york-2", "name": "Paisley", "image_url": "https://s3-media4.fl.yelpcdn.com/bphoto/0Q6wJhgNByrUiAXHznRTFw/o.jpg", "is_closed": false, "url": "https://www.yelp.com/biz/paisley-new-york-2?adjust_creative=mOPdvnzKepQ7kZcAAeJlhA&utm_campaign=yelp_api_v3&utm_medium=api_v3_business_search&utm_source=mOPdvnzKepQ7kZcAAeJlhA", "review_count": 86, "categories": [{"alias": "indpak", "title": "Indian"}], "rating": 4.5, "coordinates": {"latitude": 40.722387, "longitude": -74.0095662}, "transactions": ["delivery", "pickup"], "location": {"address1": "429 Greenwich St", "address2": "", "address3": null, "city": "New York", "zip_code": "10013", "country": "US", "state": "NY", "display_address": ["429 Greenwich St", "New York, NY 10013"]}, "phone": "+12122748003", "display_phone": "(212) 274-8003", "distance": 2123.9877672392645}, {"id": "kS2CP48K66yL2TwIhUqy_A", "alias": "tamarind-new-york-4", "name": "Tamarind", "image_url": "https://s3-media3.fl.yelpcdn.com/bphoto/0zgXNwL18E52i95zE7CwvQ/o.jpg", "is_closed": false, "url": "https://www.yelp.com/biz/tamarind-new-york-4?adjust_creative=mOPdvnzKepQ7kZcAAeJlhA&utm_campaign=yelp_api_v3&utm_medium=api_v3_business_search&utm_source=mOPdvnzKepQ7kZcAAeJlhA", "review_count": 1073, "categories": [{"alias": "indpak", "title": "Indian"}], "rating": 4.0, "coordinates": {"latitude": 40.71909, "longitude": -74.00892}, "transactions": ["delivery", "pickup"], "price": "$$$", "location": {"address1": "99 Hudson St", "address2": "", "address3": "", "city": "New York", "zip_code": "10013", "country": "US", "state": "NY", "display_address": ["99 Hudson St", "New York, NY 10013"]}, "phone": "+12127759000", "display_phone": "(212) 775-9000", "distance": 2001.3281969369848}, {"id": "NKI1VvfXYluRjnq4S6yEuw", "alias": "divyas-kitchen-new-york", "name": "Divya's Kitchen", "image_url": "https://s3-media3.fl.yelpcdn.com/bphoto/WFW-9lYNtQRwUfnkZj_QaQ/o.jpg", "is_closed": false, "url": "https://www.yelp.com/biz/divyas-kitchen-new-york?adjust_creative=mOPdvnzKepQ7kZcAAeJlhA&utm_campaign=yelp_api_v3&utm_medium=api_v3_business_search&utm_source=mOPdvnzKepQ7kZcAAeJlhA", "review_count": 450, "categories": [{"alias": "vegan", "title": "Vegan"}, {"alias": "vegetarian", "title": "Vegetarian"}], "rating": 4.5, "coordinates": {"latitude": 40.72378, "longitude": -73.98849}, "transactions": ["delivery", "pickup"], "price": "$$", "location": {"address1": "25 1st Ave", "address2": null, "address3": "", "city": "New York", "zip_code": "10003", "country": "US", "state": "NY", "display_address": ["25 1st Ave", "New York, NY 10003"]}, "phone": "+12124774834", "display_phone": "(212) 477-4834", "distance": 832.7931549788844}, {"id": "WWpOWqOgS9ClYvxYVzR0lg", "alias": "tikka-indian-grill-brooklyn-5", "name": "Tikka Indian Grill", "image_url": "https://s3-media4.fl.yelpcdn.com/bphoto/D7IP2LGd9qwoE7bXnuSqZQ/o.jpg", "is_closed": false, "url": "https://www.yelp.com/biz/tikka-indian-grill-brooklyn-5?adjust_creative=mOPdvnzKepQ7kZcAAeJlhA&utm_campaign=yelp_api_v3&utm_medium=api_v3_business_search&utm_source=mOPdvnzKepQ7kZcAAeJlhA", "review_count": 364, "categories": [{"alias": "indpak", "title": "Indian"}, {"alias": "desserts", "title": "Desserts"}, {"alias": "soup", "title": "Soup"}], "rating": 4.0, "coordinates": {"latitude": 40.71441, "longitude": -73.96078}, "transactions": ["delivery", "pickup"], "price": "$$", "location": {"address1": "185 Grand St", "address2": "", "address3": "", "city": "Brooklyn", "zip_code": "11211", "country": "US", "state": "NY", "display_address": ["185 Grand St", "Brooklyn, NY 11211"]}, "phone": "+17187682262", "display_phone": "(718) 768-2262", "distance": 2102.6876554599157}, {"id": "u1gdMF6vMCdwCilQ6vgyfw", "alias": "honest-new-york", "name": "Honest", "image_url": "https://s3-media4.fl.yelpcdn.com/bphoto/9ZsYHOx9XT0Zw__urP-fbQ/o.jpg", "is_closed": false, "url": "https://www.yelp.com/biz/honest-new-york?adjust_creative=mOPdvnzKepQ7kZcAAeJlhA&utm_campaign=yelp_api_v3&utm_medium=api_v3_business_search&utm_source=mOPdvnzKepQ7kZcAAeJlhA", "review_count": 33, "categories": [{"alias": "indpak", "title": "Indian"}], "rating": 4.5, "coordinates": {"latitude": 40.72887, "longitude": -74.00082}, "transactions": ["delivery", "pickup"], "price": "$$", "location": {"address1": "176 Bleecker St", "address2": "", "address3": null, "city": "New York", "zip_code": "10012", "country": "US", "state": "NY", "display_address": ["176 Bleecker St", "New York, NY 10012"]}, "phone": "+19172612610", "display_phone": "(917) 261-2610", "distance": 1873.7754460741503}, {"id": "V2oWqXcoJkgGeIPOaS9eDA", "alias": "masala-times-greenwich-village-new-york-9", "name": "Masala Times Greenwich Village", "image_url": "https://s3-media2.fl.yelpcdn.com/bphoto/JmwjRGiwYoBPasKWpkXJXA/o.jpg", "is_closed": false, "url": "https://www.yelp.com/biz/masala-times-greenwich-village-new-york-9?adjust_creative=mOPdvnzKepQ7kZcAAeJlhA&utm_campaign=yelp_api_v3&utm_medium=api_v3_business_search&utm_source=mOPdvnzKepQ7kZcAAeJlhA", "review_count": 567, "categories": [{"alias": "indpak", "title": "Indian"}, {"alias": "comfortfood", "title": "Comfort Food"}, {"alias": "halal", "title": "Halal"}], "rating": 4.0, "coordinates": {"latitude": 40.7292728223798, "longitude": -74.0015978515206}, "transactions": ["delivery", "pickup"], "price": "$$", "location": {"address1": "194 Bleecker St", "address2": "", "address3": "", "city": "New York", "zip_code": "10012", "country": "US", "state": "NY", "display_address": ["194 Bleecker St", "New York, NY 10012"]}, "phone": "+12129955100", "display_phone": "(212) 995-5100", "distance": 1951.9838314029193}, {"id": "jvPYm9rYK-5ddnjU30Oz4Q", "alias": "avant-garden-new-york", "name": "Avant Garden", "image_url": "https://s3-media3.fl.yelpcdn.com/bphoto/J-JWVSWiMAW9-mvkJH4JOA/o.jpg", "is_closed": false, "url": "https://www.yelp.com/biz/avant-garden-new-york?adjust_creative=mOPdvnzKepQ7kZcAAeJlhA&utm_campaign=yelp_api_v3&utm_medium=api_v3_business_search&utm_source=mOPdvnzKepQ7kZcAAeJlhA", "review_count": 404, "categories": [{"alias": "newamerican", "title": "American (New)"}, {"alias": "vegan", "title": "Vegan"}, {"alias": "vegetarian", "title": "Vegetarian"}], "rating": 4.5, "coordinates": {"latitude": 40.7261499, "longitude": -73.98402}, "transactions": ["delivery", "pickup"], "price": "$$$", "location": {"address1": "130 E 7th St", "address2": null, "address3": "", "city": "New York", "zip_code": "10009", "country": "US", "state": "NY", "display_address": ["130 E 7th St", "New York, NY 10009"]}, "phone": "+19173367179", "display_phone": "(917) 336-7179", "distance": 1063.493656426605}, {"id": "objNX6cuj1JyUijFjw21Qw", "alias": "bombay-bistro-new-york-2", "name": "Bombay Bistro", "image_url": "https://s3-media3.fl.yelpcdn.com/bphoto/FBDqyxGA51BZKMAoVr_Raw/o.jpg", "is_closed": false, "url": "https://www.yelp.com/biz/bombay-bistro-new-york-2?adjust_creative=mOPdvnzKepQ7kZcAAeJlhA&utm_campaign=yelp_api_v3&utm_medium=api_v3_business_search&utm_source=mOPdvnzKepQ7kZcAAeJlhA", "review_count": 243, "categories": [{"alias": "indpak", "title": "Indian"}, {"alias": "cocktailbars", "title": "Cocktail Bars"}], "rating": 4.5, "coordinates": {"latitude": 40.73136, "longitude": -74.00253}, "transactions": ["delivery", "pickup"], "price": "$$", "location": {"address1": "31 Cornelia St", "address2": "", "address3": null, "city": "New York", "zip_code": "10014", "country": "US", "state": "NY", "display_address": ["31 Cornelia St", "New York, NY 10014"]}, "phone": "+16468503719", "display_phone": "(646) 850-3719", "distance": 2176.178958894985}, {"id": "FvnExtQHPfz_crDCBTQ1iQ", "alias": "mint-masala-new-york", "name": "Mint Masala", "image_url": "https://s3-media3.fl.yelpcdn.com/bphoto/hmoJmqweg1MQ4KIT7QQOvA/o.jpg", "is_closed": false, "url": "https://www.yelp.com/biz/mint-masala-new-york?adjust_creative=mOPdvnzKepQ7kZcAAeJlhA&utm_campaign=yelp_api_v3&utm_medium=api_v3_business_search&utm_source=mOPdvnzKepQ7kZcAAeJlhA", "review_count": 342, "categories": [{"alias": "indpak", "title": "Indian"}, {"alias": "halal", "title": "Halal"}], "rating": 4.0, "coordinates": {"latitude": 40.729513, "longitude": -74.001138}, "transactions": ["delivery", "pickup"], "price": "$$", "location": {"address1": "95 Macdougal St", "address2": "", "address3": null, "city": "New York", "zip_code": "10012", "country": "US", "state": "NY", "display_address": ["95 Macdougal St", "New York, NY 10012"]}, "phone": "+12127772888", "display_phone": "(212) 777-2888", "distance": 1949.33826049567}, {"id": "EPHhPGDFvnq2ARTBxAikuw", "alias": "milon-new-york", "name": "Milon", "image_url": "https://s3-media4.fl.yelpcdn.com/bphoto/gi_lsXcP82QkEI9jAeEZFg/o.jpg", "is_closed": false, "url": "https://www.yelp.com/biz/milon-new-york?adjust_creative=mOPdvnzKepQ7kZcAAeJlhA&utm_campaign=yelp_api_v3&utm_medium=api_v3_business_search&utm_source=mOPdvnzKepQ7kZcAAeJlhA", "review_count": 514, "categories": [{"alias": "indpak", "title": "Indian"}, {"alias": "bangladeshi", "title": "Bangladeshi"}], "rating": 3.5, "coordinates": {"latitude": 40.726322, "longitude": -73.986648}, "transactions": ["delivery", "pickup"], "price": "$$", "location": {"address1": "93 1st Ave", "address2": "", "address3": "", "city": "New York", "zip_code": "10003", "country": "US", "state": "NY", "display_address": ["93 1st Ave", "New York, NY 10003"]}, "phone": "+12122284896", "display_phone": "(212) 228-4896", "distance": 1078.2094646167625}, {"id": "mZALre3ahuetu5X8_uUJew", "alias": "thelewala-new-york", "name": "Thelewala", "image_url": "https://s3-media3.fl.yelpcdn.com/bphoto/FRhVuRw0SJNhwUq1wWUDnA/o.jpg", "is_closed": false, "url": "https://www.yelp.com/biz/thelewala-new-york?adjust_creative=mOPdvnzKepQ7kZcAAeJlhA&utm_campaign=yelp_api_v3&utm_medium=api_v3_business_search&utm_source=mOPdvnzKepQ7kZcAAeJlhA", "review_count": 523, "categories": [{"alias": "indpak", "title": "Indian"}], "rating": 4.0, "coordinates": {"latitude": 40.72963, "longitude": -74.00068}, "transactions": ["delivery", "pickup"], "price": "$", "location": {"address1": "112 Macdougal St", "address2": "", "address3": "", "city": "New York", "zip_code": "10012", "country": "US", "state": "NY", "display_address": ["112 Macdougal St", "New York, NY 10012"]}, "phone": "+12126149100", "display_phone": "(212) 614-9100", "distance": 1922.1984734942605}, {"id": "NzU2hb0z0jGEOOv0-zTLEQ", "alias": "sigiri-new-york", "name": "Sigiri", "image_url": "https://s3-media3.fl.yelpcdn.com/bphoto/WZDYvsYq1ouVr3wPvds7-Q/o.jpg", "is_closed": false, "url": "https://www.yelp.com/biz/sigiri-new-york?adjust_creative=mOPdvnzKepQ7kZcAAeJlhA&utm_campaign=yelp_api_v3&utm_medium=api_v3_business_search&utm_source=mOPdvnzKepQ7kZcAAeJlhA", "review_count": 648, "categories": [{"alias": "srilankan", "title": "Sri Lankan"}], "rating": 4.0, "coordinates": {"latitude": 40.726261, "longitude": -73.986686}, "transactions": ["delivery", "pickup"], "price": "$$", "location": {"address1": "91 1st Ave", "address2": null, "address3": "", "city": "New York", "zip_code": "10003", "country": "US", "state": "NY", "display_address": ["91 1st Ave", "New York, NY 10003"]}, "phone": "+12126149333", "display_phone": "(212) 614-9333", "distance": 1069.1464394217783}, {"id": "j0Q-yyxS2WiL3foCJEV4eg", "alias": "dirt-candy-new-york-2", "name": "Dirt Candy", "image_url": "https://s3-media3.fl.yelpcdn.com/bphoto/bnbh8yNDVkXnyRiv5HosCA/o.jpg", "is_closed": false, "url": "https://www.yelp.com/biz/dirt-candy-new-york-2?adjust_creative=mOPdvnzKepQ7kZcAAeJlhA&utm_campaign=yelp_api_v3&utm_medium=api_v3_business_search&utm_source=mOPdvnzKepQ7kZcAAeJlhA", "review_count": 763, "categories": [{"alias": "vegetarian", "title": "Vegetarian"}, {"alias": "vegan", "title": "Vegan"}], "rating": 4.0, "coordinates": {"latitude": 40.7179075, "longitude": -73.9907183}, "transactions": ["delivery", "pickup"], "price": "$$$$", "location": {"address1": "86 Allen St", "address2": "", "address3": "", "city": "New York", "zip_code": "10002", "country": "US", "state": "NY", "display_address": ["86 Allen St", "New York, NY 10002"]}, "phone": "+12122287732", "display_phone": "(212) 228-7732", "distance": 459.92615648642465}, {"id": "hnODPHQIO14uVWIa3cztyA", "alias": "rajs-indian-kitchen-new-york", "name": "Raj's Indian Kitchen", "image_url": "https://s3-media1.fl.yelpcdn.com/bphoto/g3ZGqpiR9T7Nff_m8FhJUw/o.jpg", "is_closed": false, "url": "https://www.yelp.com/biz/rajs-indian-kitchen-new-york?adjust_creative=mOPdvnzKepQ7kZcAAeJlhA&utm_campaign=yelp_api_v3&utm_medium=api_v3_business_search&utm_source=mOPdvnzKepQ7kZcAAeJlhA", "review_count": 8, "categories": [{"alias": "indpak", "title": "Indian"}], "rating": 4.5, "coordinates": {"latitude": 40.7090336335426, "longitude": -74.00914125144482}, "transactions": ["delivery", "pickup"], "location": {"address1": "53 Nassau St", "address2": "", "address3": null, "city": "New York", "zip_code": "10038", "country": "US", "state": "NY", "display_address": ["53 Nassau St", "New York, NY 10038"]}, "phone": "", "display_phone": "", "distance": 2160.9131026924715}, {"id": "uucP1LoFyamFS0qDwgMXbg", "alias": "ghandi-cafe-new-york", "name": "Ghandi Cafe", "image_url": "https://s3-media3.fl.yelpcdn.com/bphoto/SOFvfwF5Jjw3_Dhokd1d9g/o.jpg", "is_closed": false, "url": "https://www.yelp.com/biz/ghandi-cafe-new-york?adjust_creative=mOPdvnzKepQ7kZcAAeJlhA&utm_campaign=yelp_api_v3&utm_medium=api_v3_business_search&utm_source=mOPdvnzKepQ7kZcAAeJlhA", "review_count": 473, "categories": [{"alias": "indpak", "title": "Indian"}], "rating": 4.0, "coordinates": {"latitude": 40.73194, "longitude": -74.0033}, "transactions": ["delivery", "pickup"], "price": "$$", "location": {"address1": "283 Bleecker St", "address2": "", "address3": "", "city": "New York", "zip_code": "10014", "country": "US", "state": "NY", "display_address": ["283 Bleecker St", "New York, NY 10014"]}, "phone": "+12126451456", "display_phone": "(212) 645-1456", "distance": 2262.7518630430504}, {"id": "_R6EjbrynW_LFnmWoRqgww", "alias": "surya-madam-ji-new-york", "name": "Surya - Madam Ji", "image_url": "https://s3-media1.fl.yelpcdn.com/bphoto/R_VMneVfhmSB5PwJXn4Mww/o.jpg", "is_closed": false, "url": "https://www.yelp.com/biz/surya-madam-ji-new-york?adjust_creative=mOPdvnzKepQ7kZcAAeJlhA&utm_campaign=yelp_api_v3&utm_medium=api_v3_business_search&utm_source=mOPdvnzKepQ7kZcAAeJlhA", "review_count": 277, "categories": [{"alias": "indpak", "title": "Indian"}, {"alias": "cocktailbars", "title": "Cocktail Bars"}, {"alias": "wine_bars", "title": "Wine Bars"}], "rating": 3.5, "coordinates": {"latitude": 40.728186, "longitude": -73.999436}, "transactions": ["delivery", "pickup"], "price": "$$", "location": {"address1": "154 Bleecker St", "address2": "", "address3": "", "city": "New York", "zip_code": "10012", "country": "US", "state": "NY", "display_address": ["154 Bleecker St", "New York, NY 10012"]}, "phone": "+12128751405", "display_phone": "(212) 875-1405", "distance": 1739.240838465972}, {"id": "Q7wFlNr4OFU0eCJXcOmopg", "alias": "bombays-indian-restaurant-new-york", "name": "Bombay's Indian Restaurant", "image_url": "https://s3-media3.fl.yelpcdn.com/bphoto/yKDhC52JC0vMWb2D8X1qTA/o.jpg", "is_closed": false, "url": "https://www.yelp.com/biz/bombays-indian-restaurant-new-york?adjust_creative=mOPdvnzKepQ7kZcAAeJlhA&utm_campaign=yelp_api_v3&utm_medium=api_v3_business_search&utm_source=mOPdvnzKepQ7kZcAAeJlhA", "review_count": 250, "categories": [{"alias": "indpak", "title": "Indian"}], "rating": 3.5, "coordinates": {"latitude": 40.70344, "longitude": -74.01109}, "transactions": ["delivery", "pickup"], "price": "$$", "location": {"address1": "60 Pearl St", "address2": null, "address3": "", "city": "New York", "zip_code": "10004", "country": "US", "state": "NY", "display_address": ["60 Pearl St", "New York, NY 10004"]}, "phone": "+12127422222", "display_phone": "(212) 742-2222", "distance": 2605.305881164819}, {"id": "Rk6TXh7nINbzJoGtI2C5cA", "alias": "desi-galli-new-york-3", "name": "Desi Galli", "image_url": "https://s3-media1.fl.yelpcdn.com/bphoto/F5-r6vs3oo2mazCwxOo64g/o.jpg", "is_closed": false, "url": "https://www.yelp.com/biz/desi-galli-new-york-3?adjust_creative=mOPdvnzKepQ7kZcAAeJlhA&utm_campaign=yelp_api_v3&utm_medium=api_v3_business_search&utm_source=mOPdvnzKepQ7kZcAAeJlhA", "review_count": 126, "categories": [{"alias": "indpak", "title": "Indian"}], "rating": 3.5, "coordinates": {"latitude": 40.72739, "longitude": -73.97978}, "transactions": ["delivery", "pickup"], "price": "$$", "location": {"address1": "172 Avenue B", "address2": "", "address3": "Corner 11th", "city": "New York", "zip_code": "10009", "country": "US", "state": "NY", "display_address": ["172 Avenue B", "Corner 11th", "New York, NY 10009"]}, "phone": "+12124753374", "display_phone": "(212) 475-3374", "distance": 1290.6126964723976}, {"id": "Bb0h5Rs8ugSM2CjulRhfBw", "alias": "spicy-moon-east-village-new-york", "name": "Spicy Moon East Village", "image_url": "https://s3-media2.fl.yelpcdn.com/bphoto/BNxPGEKGydefcGPyg_Z68g/o.jpg", "is_closed": false, "url": "https://www.yelp.com/biz/spicy-moon-east-village-new-york?adjust_creative=mOPdvnzKepQ7kZcAAeJlhA&utm_campaign=yelp_api_v3&utm_medium=api_v3_business_search&utm_source=mOPdvnzKepQ7kZcAAeJlhA", "review_count": 572, "categories": [{"alias": "szechuan", "title": "Szechuan"}, {"alias": "vegetarian", "title": "Vegetarian"}, {"alias": "vegan", "title": "Vegan"}], "rating": 4.5, "coordinates": {"latitude": 40.72674, "longitude": -73.98722}, "transactions": ["delivery", "pickup"], "price": "$$", "location": {"address1": "328 E 6th St", "address2": "", "address3": null, "city": "New York", "zip_code": "10003", "country": "US", "state": "NY", "display_address": ["328 E 6th St", "New York, NY 10003"]}, "phone": "+16464298471", "display_phone": "(646) 429-8471", "distance": 1130.6012392550533}, {"id": "EbX_9tqAJs4gW51gZpOB7g", "alias": "rasa-new-york", "name": "Rasa", "image_url": "https://s3-media4.fl.yelpcdn.com/bphoto/3WhLSoWj5fByW_mH8t59uw/o.jpg", "is_closed": false, "url": "https://www.yelp.com/biz/rasa-new-york?adjust_creative=mOPdvnzKepQ7kZcAAeJlhA&utm_campaign=yelp_api_v3&utm_medium=api_v3_business_search&utm_source=mOPdvnzKepQ7kZcAAeJlhA", "review_count": 817, "categories": [{"alias": "malaysian", "title": "Malaysian"}, {"alias": "thai", "title": "Thai"}, {"alias": "halal", "title": "Halal"}], "rating": 4.0, "coordinates": {"latitude": 40.7327654, "longitude": -73.9975674}, "transactions": ["pickup", "delivery"], "price": "$$", "location": {"address1": "25 W 8th St", "address2": null, "address3": "", "city": "New York", "zip_code": "10011", "country": "US", "state": "NY", "display_address": ["25 W 8th St", "New York, NY 10011"]}, "phone": "+12122541888", "display_phone": "(212) 254-1888", "distance": 2061.457308954148}, {"id": "g4EXxoV0z_TnyWF8h9xMKQ", "alias": "may-kaidee-east-broadway-new-york", "name": "May Kaidee East Broadway", "image_url": "https://s3-media2.fl.yelpcdn.com/bphoto/4quv6Vy4uosA4IUFkI4JNQ/o.jpg", "is_closed": false, "url": "https://www.yelp.com/biz/may-kaidee-east-broadway-new-york?adjust_creative=mOPdvnzKepQ7kZcAAeJlhA&utm_campaign=yelp_api_v3&utm_medium=api_v3_business_search&utm_source=mOPdvnzKepQ7kZcAAeJlhA", "review_count": 106, "categories": [{"alias": "thai", "title": "Thai"}, {"alias": "vegan", "title": "Vegan"}, {"alias": "vegetarian", "title": "Vegetarian"}], "rating": 4.5, "coordinates": {"latitude": 40.7140637, "longitude": -73.987464979291}, "transactions": ["pickup", "delivery"], "location": {"address1": "215 E Broadway", "address2": "", "address3": null, "city": "New York", "zip_code": "10002", "country": "US", "state": "NY", "display_address": ["215 E Broadway", "New York, NY 10002"]}, "phone": "+19174437885", "display_phone": "(917) 443-7885", "distance": 327.58598998637206}, {"id": "7q9Drd3DCB4hw8bPT-zLyA", "alias": "karmasala-indian-new-york", "name": "Karmasala Indian", "image_url": "https://s3-media2.fl.yelpcdn.com/bphoto/8JDjeMJcwTvhni4235hbBw/o.jpg", "is_closed": false, "url": "https://www.yelp.com/biz/karmasala-indian-new-york?adjust_creative=mOPdvnzKepQ7kZcAAeJlhA&utm_campaign=yelp_api_v3&utm_medium=api_v3_business_search&utm_source=mOPdvnzKepQ7kZcAAeJlhA", "review_count": 1, "categories": [{"alias": "indpak", "title": "Indian"}], "rating": 3.0, "coordinates": {"latitude": 40.721, "longitude": -73.99114}, "transactions": ["delivery"], "location": {"address1": "40 Rivington St", "address2": "", "address3": null, "city": "New York", "zip_code": "10002", "country": "US", "state": "NY", "display_address": ["40 Rivington St", "New York, NY 10002"]}, "phone": "+16469984176", "display_phone": "(646) 998-4176", "distance": 680.8372194727917}, {"id": "gHw2LnjgqyJclvlOjISv6g", "alias": "spice-wala-indian-cuisine-new-york", "name": "Spice Wala Indian Cuisine", "image_url": "https://s3-media3.fl.yelpcdn.com/bphoto/d86zLa8XWci_cDj1jxr7UQ/o.jpg", "is_closed": false, "url": "https://www.yelp.com/biz/spice-wala-indian-cuisine-new-york?adjust_creative=mOPdvnzKepQ7kZcAAeJlhA&utm_campaign=yelp_api_v3&utm_medium=api_v3_business_search&utm_source=mOPdvnzKepQ7kZcAAeJlhA", "review_count": 21, "categories": [{"alias": "indpak", "title": "Indian"}], "rating": 3.5, "coordinates": {"latitude": 40.7263629, "longitude": -73.9863924}, "transactions": ["pickup", "delivery"], "price": "$$", "location": {"address1": "97 1st Ave", "address2": null, "address3": "", "city": "New York", "zip_code": "10003", "country": "US", "state": "NY", "display_address": ["97 1st Ave", "New York, NY 10003"]}, "phone": "", "display_phone": "", "distance": 1085.1059019912573}, {"id": "fFkqEyupjc5x2iJQIPcpLw", "alias": "ruffian-new-york-4", "name": "Ruffian", "image_url": "https://s3-media3.fl.yelpcdn.com/bphoto/lhdGCoTG6sbsFJIJXlnqNw/o.jpg", "is_closed": false, "url": "https://www.yelp.com/biz/ruffian-new-york-4?adjust_creative=mOPdvnzKepQ7kZcAAeJlhA&utm_campaign=yelp_api_v3&utm_medium=api_v3_business_search&utm_source=mOPdvnzKepQ7kZcAAeJlhA", "review_count": 259, "categories": [{"alias": "wine_bars", "title": "Wine Bars"}, {"alias": "tapasmallplates", "title": "Tapas/Small Plates"}, {"alias": "vegetarian", "title": "Vegetarian"}], "rating": 4.5, "coordinates": {"latitude": 40.7264, "longitude": -73.98411}, "transactions": ["delivery"], "price": "$$$", "location": {"address1": "125 E 7th St", "address2": "", "address3": "", "city": "New York", "zip_code": "10009", "country": "US", "state": "NY", "display_address": ["125 E 7th St", "New York, NY 10009"]}, "phone": "", "display_phone": "", "distance": 1097.8255508087839}, {"id": "SP4bvMvxel_UPdof_er3HA", "alias": "taco-mahal-new-york", "name": "Taco Mahal", "image_url": "https://s3-media2.fl.yelpcdn.com/bphoto/wo7f5lvsgtQ5fOeWw6z83A/o.jpg", "is_closed": false, "url": "https://www.yelp.com/biz/taco-mahal-new-york?adjust_creative=mOPdvnzKepQ7kZcAAeJlhA&utm_campaign=yelp_api_v3&utm_medium=api_v3_business_search&utm_source=mOPdvnzKepQ7kZcAAeJlhA", "review_count": 749, "categories": [{"alias": "indpak", "title": "Indian"}, {"alias": "tacos", "title": "Tacos"}, {"alias": "latin", "title": "Latin American"}], "rating": 4.5, "coordinates": {"latitude": 40.73235768476899, "longitude": -74.00332645767203}, "transactions": ["pickup", "delivery"], "price": "$$", "location": {"address1": "73 7th Ave S", "address2": "", "address3": null, "city": "New York", "zip_code": "10014", "country": "US", "state": "NY", "display_address": ["73 7th Ave S", "New York, NY 10014"]}, "phone": "+16467191553", "display_phone": "(646) 719-1553", "distance": 2303.982938268097}, {"id": "wQjQHZKH_DxwntbSe1QdxQ", "alias": "brick-lane-curry-house-new-york", "name": "Brick Lane Curry House", "image_url": "https://s3-media2.fl.yelpcdn.com/bphoto/g8hmycGKCratV6ofRLYl0Q/o.jpg", "is_closed": false, "url": "https://www.yelp.com/biz/brick-lane-curry-house-new-york?adjust_creative=mOPdvnzKepQ7kZcAAeJlhA&utm_campaign=yelp_api_v3&utm_medium=api_v3_business_search&utm_source=mOPdvnzKepQ7kZcAAeJlhA", "review_count": 999, "categories": [{"alias": "indpak", "title": "Indian"}], "rating": 3.5, "coordinates": {"latitude": 40.7265407754881, "longitude": -73.9893999248542}, "transactions": ["pickup", "delivery"], "price": "$$", "location": {"address1": "79 2nd Ave", "address2": null, "address3": "", "city": "New York", "zip_code": "10003", "country": "US", "state": "NY", "display_address": ["79 2nd Ave", "New York, NY 10003"]}, "phone": "+12129792900", "display_phone": "(212) 979-2900", "distance": 1149.8772832909983}, {"id": "AuCRCB64bsBMdq02ydEuCA", "alias": "manhattan-indian-flavor-new-york", "name": "Manhattan Indian Flavor", "image_url": "https://s3-media2.fl.yelpcdn.com/bphoto/-k3N9SPHj6rkYQDK4aRwBg/o.jpg", "is_closed": false, "url": "https://www.yelp.com/biz/manhattan-indian-flavor-new-york?adjust_creative=mOPdvnzKepQ7kZcAAeJlhA&utm_campaign=yelp_api_v3&utm_medium=api_v3_business_search&utm_source=mOPdvnzKepQ7kZcAAeJlhA", "review_count": 16, "categories": [{"alias": "desserts", "title": "Desserts"}, {"alias": "indpak", "title": "Indian"}], "rating": 4.0, "coordinates": {"latitude": 40.73504, "longitude": -73.98321}, "transactions": ["pickup", "delivery"], "location": {"address1": "311 2nd Ave", "address2": "", "address3": null, "city": "New York", "zip_code": "10003", "country": "US", "state": "NY", "display_address": ["311 2nd Ave", "New York, NY 10003"]}, "phone": "+19174727667", "display_phone": "(917) 472-7667", "distance": 2058.6710060300675}, {"id": "VSPkVw9gSQx-5v4A6aC_YA", "alias": "manousheh-bleecker-new-york-8", "name": "Manousheh - Bleecker", "image_url": "https://s3-media3.fl.yelpcdn.com/bphoto/3R7CyTRhGpqwapBjFnOsgQ/o.jpg", "is_closed": false, "url": "https://www.yelp.com/biz/manousheh-bleecker-new-york-8?adjust_creative=mOPdvnzKepQ7kZcAAeJlhA&utm_campaign=yelp_api_v3&utm_medium=api_v3_business_search&utm_source=mOPdvnzKepQ7kZcAAeJlhA", "review_count": 498, "categories": [{"alias": "lebanese", "title": "Lebanese"}, {"alias": "halal", "title": "Halal"}, {"alias": "sandwiches", "title": "Sandwiches"}], "rating": 4.5, "coordinates": {"latitude": 40.729511, "longitude": -74.001275}, "transactions": ["pickup", "delivery"], "price": "$", "location": {"address1": "193 Bleecker St", "address2": "", "address3": "", "city": "New York", "zip_code": "10012", "country": "US", "state": "NY", "display_address": ["193 Bleecker St", "New York, NY 10012"]}, "phone": "+13479715778", "display_phone": "(347) 971-5778", "distance": 1952.5733951852199}, {"id": "4b43TOXpskBPZqQzbKkwDQ", "alias": "le-botaniste-new-york-4", "name": "Le Botaniste", "image_url": "https://s3-media2.fl.yelpcdn.com/bphoto/-BYPpbv4ZSP4K-svv9jN0Q/o.jpg", "is_closed": false, "url": "https://www.yelp.com/biz/le-botaniste-new-york-4?adjust_creative=mOPdvnzKepQ7kZcAAeJlhA&utm_campaign=yelp_api_v3&utm_medium=api_v3_business_search&utm_source=mOPdvnzKepQ7kZcAAeJlhA", "review_count": 213, "categories": [{"alias": "vegetarian", "title": "Vegetarian"}, {"alias": "vegan", "title": "Vegan"}, {"alias": "wine_bars", "title": "Wine Bars"}], "rating": 4.5, "coordinates": {"latitude": 40.7204278, "longitude": -74.0002028}, "transactions": ["pickup", "delivery"], "price": "$$", "location": {"address1": "127 Grand St", "address2": null, "address3": "", "city": "New York", "zip_code": "10013", "country": "US", "state": "NY", "display_address": ["127 Grand St", "New York, NY 10013"]}, "phone": "+16468707770", "display_phone": "(646) 870-7770", "distance": 1310.784293566252}, {"id": "yFub1BhKEP-W-_ZM3_nJoQ", "alias": "bodhi-kosher-vegetarian-restaurant-new-york", "name": "Bodhi Kosher Vegetarian Restaurant", "image_url": "https://s3-media4.fl.yelpcdn.com/bphoto/EWzsya_npvck4Yqpo6S3bw/o.jpg", "is_closed": false, "url": "https://www.yelp.com/biz/bodhi-kosher-vegetarian-restaurant-new-york?adjust_creative=mOPdvnzKepQ7kZcAAeJlhA&utm_campaign=yelp_api_v3&utm_medium=api_v3_business_search&utm_source=mOPdvnzKepQ7kZcAAeJlhA", "review_count": 492, "categories": [{"alias": "vegan", "title": "Vegan"}, {"alias": "kosher", "title": "Kosher"}, {"alias": "chinese", "title": "Chinese"}], "rating": 4.5, "coordinates": {"latitude": 40.71641, "longitude": -73.99931}, "transactions": ["pickup", "delivery"], "price": "$$", "location": {"address1": "77 Mulberry St", "address2": null, "address3": "", "city": "New York", "zip_code": "10013", "country": "US", "state": "NY", "display_address": ["77 Mulberry St", "New York, NY 10013"]}, "phone": "+12122332921", "display_phone": "(212) 233-2921", "distance": 1158.3022454638747}, {"id": "x3NeZ4xToUxVKDoZ32D5tg", "alias": "ny-dosas-new-york", "name": "NY Dosas", "image_url": "https://s3-media4.fl.yelpcdn.com/bphoto/Kzne_vdvAQdoMJVBf9Rmng/o.jpg", "is_closed": false, "url": "https://www.yelp.com/biz/ny-dosas-new-york?adjust_creative=mOPdvnzKepQ7kZcAAeJlhA&utm_campaign=yelp_api_v3&utm_medium=api_v3_business_search&utm_source=mOPdvnzKepQ7kZcAAeJlhA", "review_count": 520, "categories": [{"alias": "indpak", "title": "Indian"}, {"alias": "foodstands", "title": "Food Stands"}, {"alias": "vegetarian", "title": "Vegetarian"}], "rating": 4.5, "coordinates": {"latitude": 40.7308386079893, "longitude": -73.99863779767}, "transactions": ["delivery"], "price": "$", "location": {"address1": "50 Washington Sq S", "address2": "", "address3": "", "city": "New York", "zip_code": "10014", "country": "US", "state": "NY", "display_address": ["50 Washington Sq S", "New York, NY 10014"]}, "phone": "+19177102092", "display_phone": "(917) 710-2092", "distance": 1928.0529929904112}, {"id": "0SqFgkdmfNWj9iUQgfghEA", "alias": "veronicas-kitchen-new-york", "name": "Veronica's Kitchen", "image_url": "https://s3-media1.fl.yelpcdn.com/bphoto/V09TdMmUhahU1STlp3gVqw/o.jpg", "is_closed": false, "url": "https://www.yelp.com/biz/veronicas-kitchen-new-york?adjust_creative=mOPdvnzKepQ7kZcAAeJlhA&utm_campaign=yelp_api_v3&utm_medium=api_v3_business_search&utm_source=mOPdvnzKepQ7kZcAAeJlhA", "review_count": 164, "categories": [{"alias": "soulfood", "title": "Soul Food"}, {"alias": "foodstands", "title": "Food Stands"}, {"alias": "trinidadian", "title": "Trinidadian"}], "rating": 4.0, "coordinates": {"latitude": 40.7056045963693, "longitude": -74.0064248767212}, "transactions": [], "price": "$", "location": {"address1": "Front St & Pine St", "address2": "", "address3": "", "city": "New York", "zip_code": "10005", "country": "US", "state": "NY", "display_address": ["Front St & Pine St", "New York, NY 10005"]}, "phone": "+19178482465", "display_phone": "(917) 848-2465", "distance": 2144.7808652249873}, {"id": "llzZ19xTIrueN5XBZi4zWg", "alias": "indian-king-biryani-house-new-york", "name": "Indian King Biryani House", "image_url": "https://s3-media2.fl.yelpcdn.com/bphoto/Sy09Kn05Gdx-tkIjhj3c_g/o.jpg", "is_closed": false, "url": "https://www.yelp.com/biz/indian-king-biryani-house-new-york?adjust_creative=mOPdvnzKepQ7kZcAAeJlhA&utm_campaign=yelp_api_v3&utm_medium=api_v3_business_search&utm_source=mOPdvnzKepQ7kZcAAeJlhA", "review_count": 73, "categories": [{"alias": "foodtrucks", "title": "Food Trucks"}, {"alias": "indpak", "title": "Indian"}], "rating": 4.0, "coordinates": {"latitude": 40.70869096741939, "longitude": -74.01009824532372}, "transactions": ["pickup", "delivery"], "price": "$", "location": {"address1": "140 Broadway", "address2": null, "address3": "", "city": "New York", "zip_code": "10005", "country": "US", "state": "NY", "display_address": ["140 Broadway", "New York, NY 10005"]}, "phone": "+13478917910", "display_phone": "(347) 891-7910", "distance": 2250.055426233007}, {"id": "upaVTWhLsxcu1HXqN8iHVQ", "alias": "ladybird-new-york", "name": "Ladybird", "image_url": "https://s3-media3.fl.yelpcdn.com/bphoto/HIZQmxtXsIxfi6GMqZyWgQ/o.jpg", "is_closed": false, "url": "https://www.yelp.com/biz/ladybird-new-york?adjust_creative=mOPdvnzKepQ7kZcAAeJlhA&utm_campaign=yelp_api_v3&utm_medium=api_v3_business_search&utm_source=mOPdvnzKepQ7kZcAAeJlhA", "review_count": 423, "categories": [{"alias": "vegan", "title": "Vegan"}, {"alias": "cocktailbars", "title": "Cocktail Bars"}, {"alias": "tapasmallplates", "title": "Tapas/Small Plates"}], "rating": 4.0, "coordinates": {"latitude": 40.726769311104, "longitude": -73.9847712789363}, "transactions": ["pickup", "delivery"], "price": "$$", "location": {"address1": "111 East 7th St", "address2": "", "address3": null, "city": "New York", "zip_code": "10009", "country": "US", "state": "NY", "display_address": ["111 East 7th St", "New York, NY 10009"]}, "phone": "+18333284588", "display_phone": "(833) 328-4588", "distance": 1130.13279158387}, {"id": "A0YMrxUt_EuCwmuZsbSMiQ", "alias": "ambo-new-york-2", "name": "Ambo", "image_url": "https://s3-media2.fl.yelpcdn.com/bphoto/gVzb_S2lw_JQ_a_fOiCEog/o.jpg", "is_closed": false, "url": "https://www.yelp.com/biz/ambo-new-york-2?adjust_creative=mOPdvnzKepQ7kZcAAeJlhA&utm_campaign=yelp_api_v3&utm_medium=api_v3_business_search&utm_source=mOPdvnzKepQ7kZcAAeJlhA", "review_count": 39, "categories": [{"alias": "indpak", "title": "Indian"}, {"alias": "hotdogs", "title": "Fast Food"}], "rating": 5.0, "coordinates": {"latitude": 40.73115404198693, "longitude": -73.99343068770982}, "transactions": ["pickup", "delivery"], "price": "$$", "location": {"address1": "55C E 8th St", "address2": null, "address3": "", "city": "New York", "zip_code": "10003", "country": "US", "state": "NY", "display_address": ["55C E 8th St", "New York, NY 10003"]}, "phone": "+16464764214", "display_phone": "(646) 476-4214", "distance": 1747.3615966427267}, {"id": "4x4M_p_b8GvLkc4fe00GHA", "alias": "biryani-house-cart-new-york", "name": "Biryani House Cart", "image_url": "https://s3-media4.fl.yelpcdn.com/bphoto/Cp-gKItZZOKdpgFwH-8_0Q/o.jpg", "is_closed": false, "url": "https://www.yelp.com/biz/biryani-house-cart-new-york?adjust_creative=mOPdvnzKepQ7kZcAAeJlhA&utm_campaign=yelp_api_v3&utm_medium=api_v3_business_search&utm_source=mOPdvnzKepQ7kZcAAeJlhA", "review_count": 166, "categories": [{"alias": "indpak", "title": "Indian"}, {"alias": "foodstands", "title": "Food Stands"}, {"alias": "bangladeshi", "title": "Bangladeshi"}], "rating": 4.0, "coordinates": {"latitude": 40.70865, "longitude": -74.01011}, "transactions": [], "price": "$", "location": {"address1": "140 Broadway", "address2": "", "address3": "", "city": "New York", "zip_code": "10005", "country": "US", "state": "NY", "display_address": ["140 Broadway", "New York, NY 10005"]}, "phone": "", "display_phone": "", "distance": 2250.4034519032152}, {"id": "G4Y3yF4UfcCNSj0JFQQVDw", "alias": "a-saffron-thread-fresh-indian-new-york", "name": "A Saffron Thread Fresh Indian", "image_url": "https://s3-media2.fl.yelpcdn.com/bphoto/VPpB1nRKx7O2GxY60IDABQ/o.jpg", "is_closed": false, "url": "https://www.yelp.com/biz/a-saffron-thread-fresh-indian-new-york?adjust_creative=mOPdvnzKepQ7kZcAAeJlhA&utm_campaign=yelp_api_v3&utm_medium=api_v3_business_search&utm_source=mOPdvnzKepQ7kZcAAeJlhA", "review_count": 121, "categories": [{"alias": "indpak", "title": "Indian"}, {"alias": "vegetarian", "title": "Vegetarian"}, {"alias": "gluten_free", "title": "Gluten-Free"}], "rating": 3.5, "coordinates": {"latitude": 40.71461, "longitude": -74.00774}, "transactions": ["pickup", "delivery"], "price": "$$", "location": {"address1": "98 Chambers St", "address2": null, "address3": "", "city": "New York", "zip_code": "10007", "country": "US", "state": "NY", "display_address": ["98 Chambers St", "New York, NY 10007"]}, "phone": "+12126760313", "display_phone": "(212) 676-0313", "distance": 1887.875486924841}, {"id": "6yDDPOliaxgPjiv97JVPuA", "alias": "fresh-curry-new-york", "name": "Fresh Curry", "image_url": "https://s3-media4.fl.yelpcdn.com/bphoto/csfdq5v-EjI9BgcF8hkZzg/o.jpg", "is_closed": false, "url": "https://www.yelp.com/biz/fresh-curry-new-york?adjust_creative=mOPdvnzKepQ7kZcAAeJlhA&utm_campaign=yelp_api_v3&utm_medium=api_v3_business_search&utm_source=mOPdvnzKepQ7kZcAAeJlhA", "review_count": 2, "categories": [{"alias": "indpak", "title": "Indian"}, {"alias": "pakistani", "title": "Pakistani"}, {"alias": "bangladeshi", "title": "Bangladeshi"}], "rating": 4.0, "coordinates": {"latitude": 40.715694571538535, "longitude": -74.00709572779189}, "transactions": ["pickup", "delivery"], "location": {"address1": "183 Church St", "address2": "", "address3": null, "city": "New York", "zip_code": "10007", "country": "US", "state": "NY", "display_address": ["183 Church St", "New York, NY 10007"]}, "phone": "+12129646259", "display_phone": "(212) 964-6259", "distance": 1819.7747579548463}, {"id": "kB3QyyhHFVyhGgp35Rnuew", "alias": "kati-roll-company-new-york-5", "name": "The Kati Roll Company", "image_url": "https://s3-media3.fl.yelpcdn.com/bphoto/LRRlAxPMlktAPOt5XHgWwA/o.jpg", "is_closed": false, "url": "https://www.yelp.com/biz/kati-roll-company-new-york-5?adjust_creative=mOPdvnzKepQ7kZcAAeJlhA&utm_campaign=yelp_api_v3&utm_medium=api_v3_business_search&utm_source=mOPdvnzKepQ7kZcAAeJlhA", "review_count": 912, "categories": [{"alias": "indpak", "title": "Indian"}, {"alias": "halal", "title": "Halal"}], "rating": 3.5, "coordinates": {"latitude": 40.72966, "longitude": -74.00109}, "transactions": ["pickup", "delivery"], "price": "$$", "location": {"address1": "99 Macdougal St", "address2": "", "address3": "", "city": "New York", "zip_code": "10012", "country": "US", "state": "NY", "display_address": ["99 Macdougal St", "New York, NY 10012"]}, "phone": "+12124206517", "display_phone": "(212) 420-6517", "distance": 1948.2205824313635}, {"id": "_hEfuDthNKUPSfIoGwobgw", "alias": "halal-cart-new-york-60", "name": "Halal Cart", "image_url": "https://s3-media1.fl.yelpcdn.com/bphoto/Ca-jRMCftLQCmtP9JCvpcA/o.jpg", "is_closed": false, "url": "https://www.yelp.com/biz/halal-cart-new-york-60?adjust_creative=mOPdvnzKepQ7kZcAAeJlhA&utm_campaign=yelp_api_v3&utm_medium=api_v3_business_search&utm_source=mOPdvnzKepQ7kZcAAeJlhA", "review_count": 9, "categories": [{"alias": "foodtrucks", "title": "Food Trucks"}, {"alias": "halal", "title": "Halal"}], "rating": 4.5, "coordinates": {"latitude": 40.7180959, "longitude": -73.9858643}, "transactions": ["pickup", "delivery"], "price": "$", "location": {"address1": "160 Delancey St", "address2": "", "address3": "", "city": "New York", "zip_code": "10002", "country": "US", "state": "NY", "display_address": ["160 Delancey St", "New York, NY 10002"]}, "phone": "", "display_phone": "", "distance": 166.12869709262085}, {"id": "PHMkwS5nmo4IUXbcg0OcAg", "alias": "jajaja-mexicana-new-york-3", "name": "Jajaja Mexicana", "image_url": "https://s3-media2.fl.yelpcdn.com/bphoto/uWbBN6yZcR5TMFY0W0RmYQ/o.jpg", "is_closed": false, "url": "https://www.yelp.com/biz/jajaja-mexicana-new-york-3?adjust_creative=mOPdvnzKepQ7kZcAAeJlhA&utm_campaign=yelp_api_v3&utm_medium=api_v3_business_search&utm_source=mOPdvnzKepQ7kZcAAeJlhA", "review_count": 528, "categories": [{"alias": "mexican", "title": "Mexican"}, {"alias": "vegan", "title": "Vegan"}, {"alias": "cocktailbars", "title": "Cocktail Bars"}], "rating": 4.5, "coordinates": {"latitude": 40.72979, "longitude": -74.00455}, "transactions": ["pickup", "delivery"], "price": "$$", "location": {"address1": "63 Carmine St", "address2": "", "address3": null, "city": "New York", "zip_code": "10014", "country": "US", "state": "NY", "display_address": ["63 Carmine St", "New York, NY 10014"]}, "phone": "+19172620184", "display_phone": "(917) 262-0184", "distance": 2180.8566559274436}, {"id": "AiZhCGPJeLm8T1fvdYdbKQ", "alias": "pakistan-tea-house-new-york", "name": "Pakistan Tea House", "image_url": "https://s3-media4.fl.yelpcdn.com/bphoto/rVaeTRaQzDn-xP3i26QOVA/o.jpg", "is_closed": false, "url": "https://www.yelp.com/biz/pakistan-tea-house-new-york?adjust_creative=mOPdvnzKepQ7kZcAAeJlhA&utm_campaign=yelp_api_v3&utm_medium=api_v3_business_search&utm_source=mOPdvnzKepQ7kZcAAeJlhA", "review_count": 168, "categories": [{"alias": "tea", "title": "Tea Rooms"}, {"alias": "pakistani", "title": "Pakistani"}, {"alias": "halal", "title": "Halal"}], "rating": 3.5, "coordinates": {"latitude": 40.71564910302947, "longitude": -74.00759595643228}, "transactions": ["pickup", "delivery"], "price": "$", "location": {"address1": "176 Church St", "address2": "", "address3": "", "city": "New York", "zip_code": "10013", "country": "US", "state": "NY", "display_address": ["176 Church St", "New York, NY 10013"]}, "phone": "+12122409800", "display_phone": "(212) 240-9800", "distance": 1862.1554604358398}, {"id": "JtmzTnEDpS03tMytXOPUQw", "alias": "nyc-falafel-new-york-2", "name": "NYC Falafel", "image_url": "https://s3-media2.fl.yelpcdn.com/bphoto/TfPxftdRQyioJfqSRZEWfg/o.jpg", "is_closed": false, "url": "https://www.yelp.com/biz/nyc-falafel-new-york-2?adjust_creative=mOPdvnzKepQ7kZcAAeJlhA&utm_campaign=yelp_api_v3&utm_medium=api_v3_business_search&utm_source=mOPdvnzKepQ7kZcAAeJlhA", "review_count": 62, "categories": [{"alias": "halal", "title": "Halal"}, {"alias": "falafel", "title": "Falafel"}, {"alias": "breakfast_brunch", "title": "Breakfast & Brunch"}], "rating": 4.0, "coordinates": {"latitude": 40.7225149191837, "longitude": -73.9890300482512}, "transactions": ["pickup", "delivery"], "price": "$", "location": {"address1": "201 Allen St", "address2": "", "address3": "", "city": "New York", "zip_code": "10002", "country": "US", "state": "NY", "display_address": ["201 Allen St", "New York, NY 10002"]}, "phone": "+16469186877", "display_phone": "(646) 918-6877", "distance": 718.2570523733019}, {"id": "laAtmcJjds_sf-tJ7CkceA", "alias": "pollo-l-e-s-new-york", "name": "Pollo L.E.S.", "image_url": "https://s3-media2.fl.yelpcdn.com/bphoto/zhySM2GJ7SAQeZg9r69itA/o.jpg", "is_closed": false, "url": "https://www.yelp.com/biz/pollo-l-e-s-new-york?adjust_creative=mOPdvnzKepQ7kZcAAeJlhA&utm_campaign=yelp_api_v3&utm_medium=api_v3_business_search&utm_source=mOPdvnzKepQ7kZcAAeJlhA", "review_count": 4, "categories": [{"alias": "halal", "title": "Halal"}, {"alias": "chickenshop", "title": "Chicken Shop"}, {"alias": "peruvian", "title": "Peruvian"}], "rating": 4.0, "coordinates": {"latitude": 40.71983, "longitude": -73.99035}, "transactions": ["pickup", "delivery"], "location": {"address1": "123 Allen St", "address2": "", "address3": null, "city": "New York", "zip_code": "10002", "country": "US", "state": "NY", "display_address": ["123 Allen St", "New York, NY 10002"]}, "phone": "+12127290578", "display_phone": "(212) 729-0578", "distance": 546.5916056728564}, {"id": "9DceMTrjyVqBgQRqgR6GWw", "alias": "red-bamboo-new-york", "name": "Red Bamboo", "image_url": "https://s3-media4.fl.yelpcdn.com/bphoto/dvbsjK-TA2KpUyMun7T7Nw/o.jpg", "is_closed": false, "url": "https://www.yelp.com/biz/red-bamboo-new-york?adjust_creative=mOPdvnzKepQ7kZcAAeJlhA&utm_campaign=yelp_api_v3&utm_medium=api_v3_business_search&utm_source=mOPdvnzKepQ7kZcAAeJlhA", "review_count": 1798, "categories": [{"alias": "vegetarian", "title": "Vegetarian"}, {"alias": "soulfood", "title": "Soul Food"}, {"alias": "vegan", "title": "Vegan"}], "rating": 4.0, "coordinates": {"latitude": 40.7311846, "longitude": -74.00042619999999}, "transactions": ["pickup", "delivery"], "price": "$$", "location": {"address1": "140 W 4th St", "address2": "Ste A", "address3": "", "city": "New York", "zip_code": "10012", "country": "US", "state": "NY", "display_address": ["140 W 4th St", "Ste A", "New York, NY 10012"]}, "phone": "+12122601212", "display_phone": "(212) 260-1212", "distance": 2048.3990262332495}, {"id": "CX6_T61ZANH5ttfMLeKKIA", "alias": "the-kati-roll-company-new-york-10", "name": "The Kati Roll Company", "image_url": "https://s3-media2.fl.yelpcdn.com/bphoto/jJQX1c5qT4loarjskHPnRg/o.jpg", "is_closed": false, "url": "https://www.yelp.com/biz/the-kati-roll-company-new-york-10?adjust_creative=mOPdvnzKepQ7kZcAAeJlhA&utm_campaign=yelp_api_v3&utm_medium=api_v3_business_search&utm_source=mOPdvnzKepQ7kZcAAeJlhA", "review_count": 52, "categories": [{"alias": "indpak", "title": "Indian"}, {"alias": "halal", "title": "Halal"}, {"alias": "wraps", "title": "Wraps"}], "rating": 3.0, "coordinates": {"latitude": 40.709095, "longitude": -74.009144}, "transactions": ["pickup", "delivery"], "price": "$$", "location": {"address1": "22 Maiden Ln", "address2": "", "address3": null, "city": "New York", "zip_code": "10038", "country": "US", "state": "NY", "display_address": ["22 Maiden Ln", "New York, NY 10038"]}, "phone": "+12127300080", "display_phone": "(212) 730-0080", "distance": 2158.4703134073725}, {"id": "BEuZGvNlbM4tXq7YICyM6w", "alias": "luannes-wild-ginger-all-asian-vegan-new-york", "name": "LuAnne's Wild Ginger All-Asian Vegan", "image_url": "https://s3-media4.fl.yelpcdn.com/bphoto/e0Kg1tJ_2DzAIbMooVQxxw/o.jpg", "is_closed": false, "url": "https://www.yelp.com/biz/luannes-wild-ginger-all-asian-vegan-new-york?adjust_creative=mOPdvnzKepQ7kZcAAeJlhA&utm_campaign=yelp_api_v3&utm_medium=api_v3_business_search&utm_source=mOPdvnzKepQ7kZcAAeJlhA", "review_count": 678, "categories": [{"alias": "vegan", "title": "Vegan"}, {"alias": "panasian", "title": "Pan Asian"}, {"alias": "kosher", "title": "Kosher"}], "rating": 4.0, "coordinates": {"latitude": 40.7204631, "longitude": -73.9964956}, "transactions": ["pickup", "delivery"], "price": "$$", "location": {"address1": "380 Broome St", "address2": null, "address3": "", "city": "New York", "zip_code": "10013", "country": "US", "state": "NY", "display_address": ["380 Broome St", "New York, NY 10013"]}, "phone": "+12129661883", "display_phone": "(212) 966-1883", "distance": 1017.4058399052492}, {"id": "Ep_4L21-xzvkh75YIkaYgQ", "alias": "badshah-to-go-new-york-2", "name": "Badshah To-Go", "image_url": "https://s3-media1.fl.yelpcdn.com/bphoto/R91L0QHKI0DYyo_GXYNxNw/o.jpg", "is_closed": false, "url": "https://www.yelp.com/biz/badshah-to-go-new-york-2?adjust_creative=mOPdvnzKepQ7kZcAAeJlhA&utm_campaign=yelp_api_v3&utm_medium=api_v3_business_search&utm_source=mOPdvnzKepQ7kZcAAeJlhA", "review_count": 7, "categories": [{"alias": "indpak", "title": "Indian"}], "rating": 3.0, "coordinates": {"latitude": 40.70983, "longitude": -74.0079322}, "transactions": ["pickup", "delivery"], "location": {"address1": "80 Nassau St", "address2": "", "address3": null, "city": "New York", "zip_code": "10038", "country": "US", "state": "NY", "display_address": ["80 Nassau St", "New York, NY 10038"]}, "phone": "+19174093702", "display_phone": "(917) 409-3702", "distance": 2032.9382604512482}, {"id": "OChXqC_-AyL6lCflwaxxKQ", "alias": "indian-king-biryani-house-new-york-5", "name": "Indian King Biryani House", "image_url": "https://s3-media4.fl.yelpcdn.com/bphoto/wfSoiAc_EHNK8Zk24I2hsA/o.jpg", "is_closed": false, "url": "https://www.yelp.com/biz/indian-king-biryani-house-new-york-5?adjust_creative=mOPdvnzKepQ7kZcAAeJlhA&utm_campaign=yelp_api_v3&utm_medium=api_v3_business_search&utm_source=mOPdvnzKepQ7kZcAAeJlhA", "review_count": 2, "categories": [{"alias": "foodtrucks", "title": "Food Trucks"}, {"alias": "indpak", "title": "Indian"}], "rating": 5.0, "coordinates": {"latitude": 40.7291207, "longitude": -74.0077944}, "transactions": ["pickup", "delivery"], "location": {"address1": "395 Hudson St Corner", "address2": null, "address3": "", "city": "New York", "zip_code": "10014", "country": "US", "state": "NY", "display_address": ["395 Hudson St Corner", "New York, NY 10014"]}, "phone": "+13478917910", "display_phone": "(347) 891-7910", "distance": 2334.319882056204}, {"id": "tG3ojlIvdbf79RXrO2oGKQ", "alias": "gyrohouse-nyc-new-york-2", "name": "Gyrohouse NYC", "image_url": "https://s3-media2.fl.yelpcdn.com/bphoto/RfPRIwju3I1_WwNjQCWc3Q/o.jpg", "is_closed": false, "url": "https://www.yelp.com/biz/gyrohouse-nyc-new-york-2?adjust_creative=mOPdvnzKepQ7kZcAAeJlhA&utm_campaign=yelp_api_v3&utm_medium=api_v3_business_search&utm_source=mOPdvnzKepQ7kZcAAeJlhA", "review_count": 41, "categories": [{"alias": "halal", "title": "Halal"}, {"alias": "foodstands", "title": "Food Stands"}, {"alias": "mediterranean", "title": "Mediterranean"}], "rating": 4.0, "coordinates": {"latitude": 40.7088103, "longitude": -74.0108584}, "transactions": ["pickup", "delivery"], "price": "$", "location": {"address1": "Cedar St and Broadway", "address2": null, "address3": "", "city": "New York", "zip_code": "10003", "country": "US", "state": "NY", "display_address": ["Cedar St and Broadway", "New York, NY 10003"]}, "phone": "+19176902020", "display_phone": "(917) 690-2020", "distance": 2304.097492191}, {"id": "GcBZDgOKOP-RkH_mI-DS9A", "alias": "the-halal-guys-new-york-8", "name": "The Halal Guys", "image_url": "https://s3-media2.fl.yelpcdn.com/bphoto/qv72VPdgTEJb4NXtGKt6Gw/o.jpg", "is_closed": false, "url": "https://www.yelp.com/biz/the-halal-guys-new-york-8?adjust_creative=mOPdvnzKepQ7kZcAAeJlhA&utm_campaign=yelp_api_v3&utm_medium=api_v3_business_search&utm_source=mOPdvnzKepQ7kZcAAeJlhA", "review_count": 829, "categories": [{"alias": "mideastern", "title": "Middle Eastern"}, {"alias": "halal", "title": "Halal"}, {"alias": "mediterranean", "title": "Mediterranean"}], "rating": 3.5, "coordinates": {"latitude": 40.7323060751209, "longitude": -73.9843906361069}, "transactions": ["pickup", "delivery"], "price": "$", "location": {"address1": "307 E 14th St", "address2": "", "address3": "", "city": "New York", "zip_code": "10003", "country": "US", "state": "NY", "display_address": ["307 E 14th St", "New York, NY 10003"]}, "phone": "+13473784417", "display_phone": "(347) 378-4417", "distance": 1746.6217128203618}, {"id": "3PabSEZ2ESexVFZznyozVw", "alias": "delice-and-sarrasin-new-york", "name": "Delice & Sarrasin", "image_url": "https://s3-media3.fl.yelpcdn.com/bphoto/w0ppZTlQGlytnA4FpcvbnA/o.jpg", "is_closed": false, "url": "https://www.yelp.com/biz/delice-and-sarrasin-new-york?adjust_creative=mOPdvnzKepQ7kZcAAeJlhA&utm_campaign=yelp_api_v3&utm_medium=api_v3_business_search&utm_source=mOPdvnzKepQ7kZcAAeJlhA", "review_count": 503, "categories": [{"alias": "french", "title": "French"}, {"alias": "vegan", "title": "Vegan"}], "rating": 4.0, "coordinates": {"latitude": 40.73377, "longitude": -74.00065}, "transactions": ["pickup", "delivery"], "price": "$$$", "location": {"address1": "20 Christopher St", "address2": null, "address3": "", "city": "New York", "zip_code": "10014", "country": "US", "state": "NY", "display_address": ["20 Christopher St", "New York, NY 10014"]}, "phone": "+12122437200", "display_phone": "(212) 243-7200", "distance": 2296.2805771949647}, {"id": "YAapZoQK_raDPKWI97d8Tg", "alias": "tiikkarrito-new-york", "name": "Tiikkarrito", "image_url": "https://s3-media4.fl.yelpcdn.com/bphoto/MP1LKRuwgurskfDGVOfKEQ/o.jpg", "is_closed": false, "url": "https://www.yelp.com/biz/tiikkarrito-new-york?adjust_creative=mOPdvnzKepQ7kZcAAeJlhA&utm_campaign=yelp_api_v3&utm_medium=api_v3_business_search&utm_source=mOPdvnzKepQ7kZcAAeJlhA", "review_count": 1, "categories": [{"alias": "mexican", "title": "Mexican"}, {"alias": "indpak", "title": "Indian"}], "rating": 4.0, "coordinates": {"latitude": 40.70912, "longitude": -74.00578}, "transactions": ["pickup", "delivery"], "location": {"address1": "88 Fulton St", "address2": null, "address3": "", "city": "New York", "zip_code": "10038", "country": "US", "state": "NY", "display_address": ["88 Fulton St", "New York, NY 10038"]}, "phone": "+15189520790", "display_phone": "(518) 952-0790", "distance": 1904.756547873793}, {"id": "Yj8Tpy8tVf-fpct6_EUIhQ", "alias": "burger-n-grill-new-york-2", "name": "Burger N Grill", "image_url": "https://s3-media1.fl.yelpcdn.com/bphoto/qc-kLZ72SyM7fkrRqt8w8w/o.jpg", "is_closed": false, "url": "https://www.yelp.com/biz/burger-n-grill-new-york-2?adjust_creative=mOPdvnzKepQ7kZcAAeJlhA&utm_campaign=yelp_api_v3&utm_medium=api_v3_business_search&utm_source=mOPdvnzKepQ7kZcAAeJlhA", "review_count": 7, "categories": [{"alias": "indpak", "title": "Indian"}, {"alias": "pakistani", "title": "Pakistani"}, {"alias": "bangladeshi", "title": "Bangladeshi"}], "rating": 4.5, "coordinates": {"latitude": 40.71561, "longitude": -74.00762}, "transactions": ["pickup", "delivery"], "location": {"address1": "176 Church St", "address2": "", "address3": null, "city": "New York", "zip_code": "10013", "country": "US", "state": "NY", "display_address": ["176 Church St", "New York, NY 10013"]}, "phone": "+16469985998", "display_phone": "(646) 998-5998", "distance": 1864.4364657895671}, {"id": "rGmGim1ZDCxnF8n4NiKrYQ", "alias": "vegetarian-dim-sum-house-new-york", "name": "Vegetarian Dim Sum House", "image_url": "https://s3-media3.fl.yelpcdn.com/bphoto/lo5gSUHIKvRFCOdk_DkYTg/o.jpg", "is_closed": false, "url": "https://www.yelp.com/biz/vegetarian-dim-sum-house-new-york?adjust_creative=mOPdvnzKepQ7kZcAAeJlhA&utm_campaign=yelp_api_v3&utm_medium=api_v3_business_search&utm_source=mOPdvnzKepQ7kZcAAeJlhA", "review_count": 579, "categories": [{"alias": "dimsum", "title": "Dim Sum"}, {"alias": "vegetarian", "title": "Vegetarian"}, {"alias": "vegan", "title": "Vegan"}], "rating": 3.5, "coordinates": {"latitude": 40.715023, "longitude": -73.998161}, "transactions": ["pickup", "delivery"], "price": "$", "location": {"address1": "24 Pell St", "address2": null, "address3": "", "city": "New York", "zip_code": "10013", "country": "US", "state": "NY", "display_address": ["24 Pell St", "New York, NY 10013"]}, "phone": "+12125777176", "display_phone": "(212) 577-7176", "distance": 1074.6339316162685}, {"id": "tAHRDrCR0l_utA91IyOYNw", "alias": "baba-ghanouge-new-york", "name": "Baba Ghanouge", "image_url": "https://s3-media2.fl.yelpcdn.com/bphoto/Wv-zUukAA_vHJ7vgVSkY3Q/o.jpg", "is_closed": false, "url": "https://www.yelp.com/biz/baba-ghanouge-new-york?adjust_creative=mOPdvnzKepQ7kZcAAeJlhA&utm_campaign=yelp_api_v3&utm_medium=api_v3_business_search&utm_source=mOPdvnzKepQ7kZcAAeJlhA", "review_count": 151, "categories": [{"alias": "mediterranean", "title": "Mediterranean"}, {"alias": "mideastern", "title": "Middle Eastern"}, {"alias": "halal", "title": "Halal"}], "rating": 3.0, "coordinates": {"latitude": 40.71511, "longitude": -74.00758}, "transactions": ["pickup", "delivery"], "price": "$", "location": {"address1": "165 Church St", "address2": "", "address3": "", "city": "New York", "zip_code": "10007", "country": "US", "state": "NY", "display_address": ["165 Church St", "New York, NY 10007"]}, "phone": "+12125712020", "display_phone": "(212) 571-2020", "distance": 1863.5262825454402}, {"id": "Yf4SjE9tfd1ASaT3xtwYzQ", "alias": "bombay-biryany-cart-new-york", "name": "Bombay Biryany Cart", "image_url": "https://s3-media3.fl.yelpcdn.com/bphoto/FyiomJ7bWHR5P7EloJ3YzA/o.jpg", "is_closed": false, "url": "https://www.yelp.com/biz/bombay-biryany-cart-new-york?adjust_creative=mOPdvnzKepQ7kZcAAeJlhA&utm_campaign=yelp_api_v3&utm_medium=api_v3_business_search&utm_source=mOPdvnzKepQ7kZcAAeJlhA", "review_count": 5, "categories": [{"alias": "indpak", "title": "Indian"}], "rating": 4.5, "coordinates": {"latitude": 40.7090803971022, "longitude": -74.0105903148651}, "transactions": [], "price": "$", "location": {"address1": "Broadway & Liberty St", "address2": "", "address3": "", "city": "New York", "zip_code": "10005", "country": "US", "state": "NY", "display_address": ["Broadway & Liberty St", "New York, NY 10005"]}, "phone": "", "display_phone": "", "distance": 2271.924508618681}, {"id": "TTwPVEHeSeyFMLF6cik8Lw", "alias": "raj-mahal-new-york", "name": "Raj Mahal", "image_url": "https://s3-media1.fl.yelpcdn.com/bphoto/PPBSfJxyjLZ0YM-mzedEow/o.jpg", "is_closed": false, "url": "https://www.yelp.com/biz/raj-mahal-new-york?adjust_creative=mOPdvnzKepQ7kZcAAeJlhA&utm_campaign=yelp_api_v3&utm_medium=api_v3_business_search&utm_source=mOPdvnzKepQ7kZcAAeJlhA", "review_count": 214, "categories": [{"alias": "indpak", "title": "Indian"}, {"alias": "seafood", "title": "Seafood"}], "rating": 3.0, "coordinates": {"latitude": 40.72684, "longitude": -73.98746}, "transactions": ["pickup", "delivery"], "price": "$$", "location": {"address1": "322 E 6th St", "address2": "Ste 1", "address3": "", "city": "New York", "zip_code": "10003", "country": "US", "state": "NY", "display_address": ["322 E 6th St", "Ste 1", "New York, NY 10003"]}, "phone": "+12129823632", "display_phone": "(212) 982-3632", "distance": 1143.442605613031}, {"id": "tguMh2GgOcU9fu6WN3dqpw", "alias": "the-original-buddha-bodai-kosher-vegetarian-restaurant-new-york-4", "name": "The Original Buddha Bodai Kosher Vegetarian Restaurant", "image_url": "https://s3-media2.fl.yelpcdn.com/bphoto/amfkulADNxnzUgWez2J4oA/o.jpg", "is_closed": false, "url": "https://www.yelp.com/biz/the-original-buddha-bodai-kosher-vegetarian-restaurant-new-york-4?adjust_creative=mOPdvnzKepQ7kZcAAeJlhA&utm_campaign=yelp_api_v3&utm_medium=api_v3_business_search&utm_source=mOPdvnzKepQ7kZcAAeJlhA", "review_count": 1205, "categories": [{"alias": "chinese", "title": "Chinese"}, {"alias": "kosher", "title": "Kosher"}, {"alias": "vegan", "title": "Vegan"}], "rating": 4.0, "coordinates": {"latitude": 40.7138543, "longitude": -73.9989484}, "transactions": ["pickup", "delivery"], "price": "$$", "location": {"address1": "5 Mott St", "address2": null, "address3": "", "city": "New York", "zip_code": "10013", "country": "US", "state": "NY", "display_address": ["5 Mott St", "New York, NY 10013"]}, "phone": "+12125668388", "display_phone": "(212) 566-8388", "distance": 1171.3689763633909}, {"id": "jpw7iGUzsj_AECKt351X8w", "alias": "wolfnights-the-gourmet-wrap-new-york-6", "name": "Wolfnights - The Gourmet Wrap", "image_url": "https://s3-media4.fl.yelpcdn.com/bphoto/Exuhbz0EH8UIKGmGAlZi7w/o.jpg", "is_closed": false, "url": "https://www.yelp.com/biz/wolfnights-the-gourmet-wrap-new-york-6?adjust_creative=mOPdvnzKepQ7kZcAAeJlhA&utm_campaign=yelp_api_v3&utm_medium=api_v3_business_search&utm_source=mOPdvnzKepQ7kZcAAeJlhA", "review_count": 576, "categories": [{"alias": "newamerican", "title": "American (New)"}, {"alias": "sandwiches", "title": "Sandwiches"}, {"alias": "wraps", "title": "Wraps"}], "rating": 4.0, "coordinates": {"latitude": 40.7199624, "longitude": -73.9885666}, "transactions": ["pickup", "delivery"], "price": "$$", "location": {"address1": "99 Rivington St", "address2": null, "address3": "", "city": "New York", "zip_code": "10002", "country": "US", "state": "NY", "display_address": ["99 Rivington St", "New York, NY 10002"]}, "phone": "+16467070293", "display_phone": "(646) 707-0293", "distance": 450.6191497025503}, {"id": "YnDs59_dEQ61TdCD4fdyEw", "alias": "orchard-grocer-new-york", "name": "Orchard Grocer", "image_url": "https://s3-media1.fl.yelpcdn.com/bphoto/ZNowZRl_p1AjvUfHRuGehw/o.jpg", "is_closed": false, "url": "https://www.yelp.com/biz/orchard-grocer-new-york?adjust_creative=mOPdvnzKepQ7kZcAAeJlhA&utm_campaign=yelp_api_v3&utm_medium=api_v3_business_search&utm_source=mOPdvnzKepQ7kZcAAeJlhA", "review_count": 284, "categories": [{"alias": "delis", "title": "Delis"}, {"alias": "vegan", "title": "Vegan"}, {"alias": "sandwiches", "title": "Sandwiches"}], "rating": 4.5, "coordinates": {"latitude": 40.717744, "longitude": -73.990187}, "transactions": ["pickup", "delivery"], "price": "$$", "location": {"address1": "78 Orchard St", "address2": null, "address3": "", "city": "New York", "zip_code": "10002", "country": "US", "state": "NY", "display_address": ["78 Orchard St", "New York, NY 10002"]}, "phone": "+16467579910", "display_phone": "(646) 757-9910", "distance": 411.14313007352035}, {"id": "lUpyqsKw-IBqsMgYIHZj7Q", "alias": "balade-new-york", "name": "Balade", "image_url": "https://s3-media3.fl.yelpcdn.com/bphoto/g4osspDOpoQeMKVAj6Cimg/o.jpg", "is_closed": false, "url": "https://www.yelp.com/biz/balade-new-york?adjust_creative=mOPdvnzKepQ7kZcAAeJlhA&utm_campaign=yelp_api_v3&utm_medium=api_v3_business_search&utm_source=mOPdvnzKepQ7kZcAAeJlhA", "review_count": 863, "categories": [{"alias": "mediterranean", "title": "Mediterranean"}, {"alias": "lebanese", "title": "Lebanese"}, {"alias": "halal", "title": "Halal"}], "rating": 4.0, "coordinates": {"latitude": 40.730251, "longitude": -73.983001}, "transactions": ["pickup", "delivery"], "price": "$$", "location": {"address1": "208 1st Ave", "address2": "", "address3": "", "city": "New York", "zip_code": "10009", "country": "US", "state": "NY", "display_address": ["208 1st Ave", "New York, NY 10009"]}, "phone": "+12125296868", "display_phone": "(212) 529-6868", "distance": 1532.3162362107867}, {"id": "KS7mJHRLUeLmJyDSrT5Mjw", "alias": "desi-stop-deli-new-york-2", "name": "Desi Stop Deli", "image_url": "", "is_closed": false, "url": "https://www.yelp.com/biz/desi-stop-deli-new-york-2?adjust_creative=mOPdvnzKepQ7kZcAAeJlhA&utm_campaign=yelp_api_v3&utm_medium=api_v3_business_search&utm_source=mOPdvnzKepQ7kZcAAeJlhA", "review_count": 4, "categories": [{"alias": "vegetarian", "title": "Vegetarian"}, {"alias": "indpak", "title": "Indian"}, {"alias": "delis", "title": "Delis"}], "rating": 5.0, "coordinates": {"latitude": 40.72660705700247, "longitude": -73.9895454}, "transactions": ["pickup", "delivery"], "location": {"address1": "75 2nd Ave", "address2": null, "address3": null, "city": "New York", "zip_code": "10003", "country": "US", "state": "NY", "display_address": ["75 2nd Ave", "New York, NY 10003"]}, "phone": "+16464550909", "display_phone": "(646) 455-0909", "distance": 1160.4559104736772}, {"id": "3Pj_6JogAypgXNhM1-iSPQ", "alias": "go-vegan-cuisine-new-york-2", "name": "Go Vegan Cuisine", "image_url": "https://s3-media2.fl.yelpcdn.com/bphoto/IcgbOiDF32NmOx4IO3XjKg/o.jpg", "is_closed": false, "url": "https://www.yelp.com/biz/go-vegan-cuisine-new-york-2?adjust_creative=mOPdvnzKepQ7kZcAAeJlhA&utm_campaign=yelp_api_v3&utm_medium=api_v3_business_search&utm_source=mOPdvnzKepQ7kZcAAeJlhA", "review_count": 15, "categories": [{"alias": "vegan", "title": "Vegan"}, {"alias": "thai", "title": "Thai"}, {"alias": "venues", "title": "Venues & Event Spaces"}], "rating": 4.5, "coordinates": {"latitude": 40.72383, "longitude": -73.98478}, "transactions": ["pickup", "delivery"], "location": {"address1": "50 Ave A", "address2": null, "address3": "", "city": "New York", "zip_code": "10009", "country": "US", "state": "NY", "display_address": ["50 Ave A", "New York, NY 10009"]}, "phone": "+12676668058", "display_phone": "(267) 666-8058", "distance": 801.938987118333}, {"id": "GtfhGhWmr1kQ4EnFTlwg7w", "alias": "beatnic-west-village-new-york-2", "name": "Beatnic - West Village", "image_url": "https://s3-media2.fl.yelpcdn.com/bphoto/AJOPyFDONTz8JOYaettMPQ/o.jpg", "is_closed": false, "url": "https://www.yelp.com/biz/beatnic-west-village-new-york-2?adjust_creative=mOPdvnzKepQ7kZcAAeJlhA&utm_campaign=yelp_api_v3&utm_medium=api_v3_business_search&utm_source=mOPdvnzKepQ7kZcAAeJlhA", "review_count": 1676, "categories": [{"alias": "vegan", "title": "Vegan"}, {"alias": "vegetarian", "title": "Vegetarian"}, {"alias": "gluten_free", "title": "Gluten-Free"}], "rating": 4.0, "coordinates": {"latitude": 40.729209, "longitude": -74.001066}, "transactions": ["pickup", "delivery"], "price": "$$", "location": {"address1": "185 Bleecker St", "address2": "", "address3": "", "city": "New York", "zip_code": "10012", "country": "US", "state": "NY", "display_address": ["185 Bleecker St", "New York, NY 10012"]}, "phone": "+12122908000", "display_phone": "(212) 290-8000", "distance": 1915.9912344041204}, {"id": "JdNzj7EGQLC9eqqw3SYBPg", "alias": "organic-grill-new-york-2", "name": "Organic Grill", "image_url": "https://s3-media1.fl.yelpcdn.com/bphoto/Cd4VTHmbti0vHqNPpw9u8w/o.jpg", "is_closed": false, "url": "https://www.yelp.com/biz/organic-grill-new-york-2?adjust_creative=mOPdvnzKepQ7kZcAAeJlhA&utm_campaign=yelp_api_v3&utm_medium=api_v3_business_search&utm_source=mOPdvnzKepQ7kZcAAeJlhA", "review_count": 481, "categories": [{"alias": "vegan", "title": "Vegan"}, {"alias": "gluten_free", "title": "Gluten-Free"}, {"alias": "kosher", "title": "Kosher"}], "rating": 4.0, "coordinates": {"latitude": 40.73088285012182, "longitude": -74.00079123783922}, "transactions": ["pickup", "delivery"], "price": "$$", "location": {"address1": "133 W 3rd St", "address2": "", "address3": "", "city": "New York", "zip_code": "10012", "country": "US", "state": "NY", "display_address": ["133 W 3rd St", "New York, NY 10012"]}, "phone": "+12124777177", "display_phone": "(212) 477-7177", "distance": 2041.2115718419477}, {"id": "jKCSGAMyS0KIcS-vKpEuaA", "alias": "sammys-halal-food-new-york", "name": "Sammy's Halal Food", "image_url": "https://s3-media3.fl.yelpcdn.com/bphoto/RohIVTG29zszPKua82Z-2w/o.jpg", "is_closed": false, "url": "https://www.yelp.com/biz/sammys-halal-food-new-york?adjust_creative=mOPdvnzKepQ7kZcAAeJlhA&utm_campaign=yelp_api_v3&utm_medium=api_v3_business_search&utm_source=mOPdvnzKepQ7kZcAAeJlhA", "review_count": 124, "categories": [{"alias": "foodstands", "title": "Food Stands"}, {"alias": "mideastern", "title": "Middle Eastern"}, {"alias": "halal", "title": "Halal"}], "rating": 4.0, "coordinates": {"latitude": 40.71467, "longitude": -74.01368}, "transactions": ["pickup", "delivery"], "price": "$", "location": {"address1": "NE Corner 6th Ave W 4th St", "address2": "", "address3": "", "city": "New York", "zip_code": "10012", "country": "US", "state": "NY", "display_address": ["NE Corner 6th Ave W 4th St", "New York, NY 10012"]}, "phone": "+13478611902", "display_phone": "(347) 861-1902", "distance": 2121.8692519160422}, {"id": "MAwtBgCmrY-i_jbmXlDMkw", "alias": "peacefood-cafe-downtown-new-york", "name": "Peacefood Cafe Downtown", "image_url": "https://s3-media1.fl.yelpcdn.com/bphoto/mNYkq6eXIryOv7SIAVj0Xw/o.jpg", "is_closed": false, "url": "https://www.yelp.com/biz/peacefood-cafe-downtown-new-york?adjust_creative=mOPdvnzKepQ7kZcAAeJlhA&utm_campaign=yelp_api_v3&utm_medium=api_v3_business_search&utm_source=mOPdvnzKepQ7kZcAAeJlhA", "review_count": 794, "categories": [{"alias": "vegan", "title": "Vegan"}], "rating": 4.0, "coordinates": {"latitude": 40.7332670924819, "longitude": -73.9929751334153}, "transactions": ["pickup", "delivery"], "price": "$$", "location": {"address1": "41 E 11th St", "address2": "", "address3": "", "city": "New York", "zip_code": "10003", "country": "US", "state": "NY", "display_address": ["41 E 11th St", "New York, NY 10003"]}, "phone": "+12129792288", "display_phone": "(212) 979-2288", "distance": 1954.0195966880822}, {"id": "XipQLDbyTl5tsLlyzAWzug", "alias": "jajaja-mexicana-new-york-2", "name": "Jajaja Mexicana", "image_url": "https://s3-media4.fl.yelpcdn.com/bphoto/fw9bct0vQIbMPIGGaObTYA/o.jpg", "is_closed": false, "url": "https://www.yelp.com/biz/jajaja-mexicana-new-york-2?adjust_creative=mOPdvnzKepQ7kZcAAeJlhA&utm_campaign=yelp_api_v3&utm_medium=api_v3_business_search&utm_source=mOPdvnzKepQ7kZcAAeJlhA", "review_count": 1147, "categories": [{"alias": "mexican", "title": "Mexican"}, {"alias": "vegan", "title": "Vegan"}, {"alias": "bars", "title": "Bars"}], "rating": 4.5, "coordinates": {"latitude": 40.71419, "longitude": -73.99041}, "transactions": ["pickup", "delivery"], "price": "$$", "location": {"address1": "162 E Broadway", "address2": "", "address3": null, "city": "New York", "zip_code": "10002", "country": "US", "state": "NY", "display_address": ["162 E Broadway", "New York, NY 10002"]}, "phone": "+16468835453", "display_phone": "(646) 883-5453", "distance": 491.0775061378648}, {"id": "CAGAWbPE8uPr2VVvEnv0ZA", "alias": "ribalta-pizza-new-york", "name": "Ribalta Pizza", "image_url": "https://s3-media3.fl.yelpcdn.com/bphoto/O6RftJPph1inJ4dbf6o3rw/o.jpg", "is_closed": false, "url": "https://www.yelp.com/biz/ribalta-pizza-new-york?adjust_creative=mOPdvnzKepQ7kZcAAeJlhA&utm_campaign=yelp_api_v3&utm_medium=api_v3_business_search&utm_source=mOPdvnzKepQ7kZcAAeJlhA", "review_count": 707, "categories": [{"alias": "pizza", "title": "Pizza"}, {"alias": "italian", "title": "Italian"}, {"alias": "gluten_free", "title": "Gluten-Free"}], "rating": 4.0, "coordinates": {"latitude": 40.7334346, "longitude": -73.9916923}, "transactions": ["pickup", "delivery"], "price": "$$", "location": {"address1": "48 E 12th St", "address2": "", "address3": "", "city": "New York", "zip_code": "10003", "country": "US", "state": "NY", "display_address": ["48 E 12th St", "New York, NY 10003"]}, "phone": "+12127777781", "display_phone": "(212) 777-7781", "distance": 1940.020380575162}, {"id": "Tl62WKPOTpGfhSTcHNKkLQ", "alias": "express-halal-cart-new-york-2", "name": "Express Halal Cart", "image_url": "https://s3-media2.fl.yelpcdn.com/bphoto/FeI_zQaYNZOdBVv8ktkDlw/o.jpg", "is_closed": false, "url": "https://www.yelp.com/biz/express-halal-cart-new-york-2?adjust_creative=mOPdvnzKepQ7kZcAAeJlhA&utm_campaign=yelp_api_v3&utm_medium=api_v3_business_search&utm_source=mOPdvnzKepQ7kZcAAeJlhA", "review_count": 2, "categories": [{"alias": "streetvendors", "title": "Street Vendors"}, {"alias": "halal", "title": "Halal"}], "rating": 5.0, "coordinates": {"latitude": 40.7074818321323, "longitude": -74.008410199089}, "transactions": [], "location": {"address1": "", "address2": "", "address3": "", "city": "New York", "zip_code": "10001", "country": "US", "state": "NY", "display_address": ["New York, NY 10001"]}, "phone": "", "display_phone": "", "distance": 2179.2800601267904}, {"id": "iSiOfm9CdUhbS0eDHPHUNA", "alias": "desi-food-truck-new-york", "name": "Desi Food Truck", "image_url": "https://s3-media4.fl.yelpcdn.com/bphoto/lpVFeDOXjhfyqViN1FW4wg/o.jpg", "is_closed": false, "url": "https://www.yelp.com/biz/desi-food-truck-new-york?adjust_creative=mOPdvnzKepQ7kZcAAeJlhA&utm_campaign=yelp_api_v3&utm_medium=api_v3_business_search&utm_source=mOPdvnzKepQ7kZcAAeJlhA", "review_count": 73, "categories": [{"alias": "indpak", "title": "Indian"}, {"alias": "foodtrucks", "title": "Food Trucks"}], "rating": 3.5, "coordinates": {"latitude": 40.7251853942871, "longitude": -73.9992523193359}, "transactions": [], "price": "$", "location": {"address1": "", "address2": "", "address3": "", "city": "New York", "zip_code": "10012", "country": "US", "state": "NY", "display_address": ["New York, NY 10012"]}, "phone": "+12129616193", "display_phone": "(212) 961-6193", "distance": 1389.3912197913928}, {"id": "xccpkSa-54SXLnvSJ9DYWw", "alias": "paratha-junction-new-york", "name": "Paratha Junction", "image_url": "", "is_closed": false, "url": "https://www.yelp.com/biz/paratha-junction-new-york?adjust_creative=mOPdvnzKepQ7kZcAAeJlhA&utm_campaign=yelp_api_v3&utm_medium=api_v3_business_search&utm_source=mOPdvnzKepQ7kZcAAeJlhA", "review_count": 1, "categories": [{"alias": "indpak", "title": "Indian"}], "rating": 5.0, "coordinates": {"latitude": 40.726652436588715, "longitude": -73.9893477}, "transactions": ["pickup", "delivery"], "location": {"address1": "79 2nd Ave", "address2": null, "address3": null, "city": "New York", "zip_code": "10003", "country": "US", "state": "NY", "display_address": ["79 2nd Ave", "New York, NY 10003"]}, "phone": "+19173532537", "display_phone": "(917) 353-2537", "distance": 1160.5660108336479}, {"id": "XgI1wysexzC8enIrcae0wg", "alias": "cleanse-theory-kitchen-new-york", "name": "Cleanse Theory Kitchen", "image_url": "https://s3-media4.fl.yelpcdn.com/bphoto/WYCqQppZ68dyfXiqYGfa7w/o.jpg", "is_closed": false, "url": "https://www.yelp.com/biz/cleanse-theory-kitchen-new-york?adjust_creative=mOPdvnzKepQ7kZcAAeJlhA&utm_campaign=yelp_api_v3&utm_medium=api_v3_business_search&utm_source=mOPdvnzKepQ7kZcAAeJlhA", "review_count": 15, "categories": [{"alias": "comfortfood", "title": "Comfort Food"}, {"alias": "vegan", "title": "Vegan"}, {"alias": "gluten_free", "title": "Gluten-Free"}], "rating": 4.5, "coordinates": {"latitude": 40.7132824, "longitude": -73.9934821}, "transactions": ["pickup", "delivery"], "location": {"address1": "83 Henry St", "address2": null, "address3": null, "city": "New York", "zip_code": "10002", "country": "US", "state": "NY", "display_address": ["83 Henry St", "New York, NY 10002"]}, "phone": "+12122138266", "display_phone": "(212) 213-8266", "distance": 765.6138206808002}, {"id": "-D-ye8DU5KndJ7mqBpKU1g", "alias": "araf-biriyani-and-halal-food-new-york", "name": "Araf Biriyani & Halal Food", "image_url": "https://s3-media3.fl.yelpcdn.com/bphoto/29-ZkVMudu3NprdsoBufFg/o.jpg", "is_closed": false, "url": "https://www.yelp.com/biz/araf-biriyani-and-halal-food-new-york?adjust_creative=mOPdvnzKepQ7kZcAAeJlhA&utm_campaign=yelp_api_v3&utm_medium=api_v3_business_search&utm_source=mOPdvnzKepQ7kZcAAeJlhA", "review_count": 6, "categories": [{"alias": "foodtrucks", "title": "Food Trucks"}, {"alias": "indpak", "title": "Indian"}], "rating": 4.5, "coordinates": {"latitude": 40.7258, "longitude": -73.99793}, "transactions": [], "location": {"address1": "", "address2": "", "address3": null, "city": "New York", "zip_code": "10012", "country": "US", "state": "NY", "display_address": ["New York, NY 10012"]}, "phone": "", "display_phone": "", "distance": 1389.3912197913928}, {"id": "mLHy05eWKXl0pht9eVwbrQ", "alias": "gunpowder-cafe-new-york-2", "name": "Gunpowder Cafe", "image_url": "", "is_closed": false, "url": "https://www.yelp.com/biz/gunpowder-cafe-new-york-2?adjust_creative=mOPdvnzKepQ7kZcAAeJlhA&utm_campaign=yelp_api_v3&utm_medium=api_v3_business_search&utm_source=mOPdvnzKepQ7kZcAAeJlhA", "review_count": 1, "categories": [{"alias": "fooddeliveryservices", "title": "Food Delivery Services"}, {"alias": "indpak", "title": "Indian"}], "rating": 2.0, "coordinates": {"latitude": 40.71626663208008, "longitude": -73.98758697509766}, "transactions": [], "location": {"address1": "", "address2": null, "address3": null, "city": "New York", "zip_code": "10002", "country": "US", "state": "NY", "display_address": ["New York, NY 10002"]}, "phone": "+19142171965", "display_phone": "(914) 217-1965", "distance": 347.77989857038654}, {"id": "aerH0RTL3juqiLZbhwYVrw", "alias": "ginger-tree-no-title", "name": "Ginger Tree", "image_url": "https://s3-media4.fl.yelpcdn.com/bphoto/B3wqPPy2wSiHYW37gs7Y-Q/o.jpg", "is_closed": false, "url": "https://www.yelp.com/biz/ginger-tree-no-title?adjust_creative=mOPdvnzKepQ7kZcAAeJlhA&utm_campaign=yelp_api_v3&utm_medium=api_v3_business_search&utm_source=mOPdvnzKepQ7kZcAAeJlhA", "review_count": 1, "categories": [{"alias": "indpak", "title": "Indian"}, {"alias": "buffets", "title": "Buffets"}, {"alias": "karaoke", "title": "Karaoke"}], "rating": 3.0, "coordinates": {"latitude": 52.5245, "longitude": -1.46501}, "transactions": [], "location": {"address1": "7 Bond Street", "address2": "Nuneaton", "address3": "", "city": "Aberdeen", "zip_code": "CV11 4DA", "country": "GB", "state": "ABE", "display_address": ["7 Bond Street", "Nuneaton", "Aberdeen CV11 4DA", "United Kingdom"]}, "phone": "+442476388308", "display_phone": "+44 24 7638 8308", "distance": 1342.4172046187166}, {"id": "PqqnNrUtU7XTKQvUM4cyqQ", "alias": "bar-verde-new-york", "name": "Bar Verde", "image_url": "https://s3-media1.fl.yelpcdn.com/bphoto/ZmPLMPMSviGQXTyUSJeJrw/o.jpg", "is_closed": false, "url": "https://www.yelp.com/biz/bar-verde-new-york?adjust_creative=mOPdvnzKepQ7kZcAAeJlhA&utm_campaign=yelp_api_v3&utm_medium=api_v3_business_search&utm_source=mOPdvnzKepQ7kZcAAeJlhA", "review_count": 393, "categories": [{"alias": "mexican", "title": "Mexican"}, {"alias": "vegan", "title": "Vegan"}, {"alias": "gluten_free", "title": "Gluten-Free"}], "rating": 4.5, "coordinates": {"latitude": 40.7260849061034, "longitude": -73.9897361397743}, "transactions": ["pickup", "delivery"], "price": "$$", "location": {"address1": "65 2nd Ave", "address2": "", "address3": null, "city": "New York", "zip_code": "10003", "country": "US", "state": "NY", "display_address": ["65 2nd Ave", "New York, NY 10003"]}, "phone": "+12127776965", "display_phone": "(212) 777-6965", "distance": 1110.0549415840471}, {"id": "bRPq-Nmct5bOuOtsu8fC7Q", "alias": "smac-new-york", "name": "S'MAC", "image_url": "https://s3-media3.fl.yelpcdn.com/bphoto/v0WNAlbgqS0IN3NVw98tSw/o.jpg", "is_closed": false, "url": "https://www.yelp.com/biz/smac-new-york?adjust_creative=mOPdvnzKepQ7kZcAAeJlhA&utm_campaign=yelp_api_v3&utm_medium=api_v3_business_search&utm_source=mOPdvnzKepQ7kZcAAeJlhA", "review_count": 2317, "categories": [{"alias": "tradamerican", "title": "American (Traditional)"}, {"alias": "gluten_free", "title": "Gluten-Free"}, {"alias": "vegetarian", "title": "Vegetarian"}], "rating": 3.5, "coordinates": {"latitude": 40.730212, "longitude": -73.983724}, "transactions": ["pickup", "delivery"], "price": "$$", "location": {"address1": "197 1st Ave", "address2": "", "address3": "", "city": "New York", "zip_code": "10003", "country": "US", "state": "NY", "display_address": ["197 1st Ave", "New York, NY 10003"]}, "phone": "+12123587912", "display_phone": "(212) 358-7912", "distance": 1518.8076819110506}, {"id": "cfa699KGi9Ki-U_mCMVJvg", "alias": "caravan-of-dreams-new-york", "name": "Caravan of Dreams", "image_url": "https://s3-media4.fl.yelpcdn.com/bphoto/o_NCJpJ_1ZnJcwrib7qa4g/o.jpg", "is_closed": false, "url": "https://www.yelp.com/biz/caravan-of-dreams-new-york?adjust_creative=mOPdvnzKepQ7kZcAAeJlhA&utm_campaign=yelp_api_v3&utm_medium=api_v3_business_search&utm_source=mOPdvnzKepQ7kZcAAeJlhA", "review_count": 537, "categories": [{"alias": "vegan", "title": "Vegan"}, {"alias": "kosher", "title": "Kosher"}, {"alias": "raw_food", "title": "Live/Raw Food"}], "rating": 3.5, "coordinates": {"latitude": 40.7261704450824, "longitude": -73.9856490472387}, "transactions": ["pickup", "delivery"], "price": "$$", "location": {"address1": "405 E 6th St", "address2": null, "address3": null, "city": "New York City", "zip_code": "10009", "country": "US", "state": "NY", "display_address": ["405 E 6th St", "New York City, NY 10009"]}, "phone": "+12122541613", "display_phone": "(212) 254-1613", "distance": 1061.731932645797}, {"id": "_oB3M47mlg3dJGKKIYkRIA", "alias": "jewel-of-india-manhattan", "name": "Jewel of India", "image_url": "https://s3-media2.fl.yelpcdn.com/bphoto/bX-v_23KjrkpdrqS6gwvkg/o.jpg", "is_closed": false, "url": "https://www.yelp.com/biz/jewel-of-india-manhattan?adjust_creative=mOPdvnzKepQ7kZcAAeJlhA&utm_campaign=yelp_api_v3&utm_medium=api_v3_business_search&utm_source=mOPdvnzKepQ7kZcAAeJlhA", "review_count": 14, "categories": [{"alias": "indpak", "title": "Indian"}], "rating": 2.5, "coordinates": {"latitude": 40.7266884, "longitude": -73.9874496}, "transactions": ["delivery", "pickup"], "price": "$$", "location": {"address1": "324 E 6th St", "address2": null, "address3": "", "city": "Manhattan", "zip_code": "10003", "country": "US", "state": "NY", "display_address": ["324 E 6th St", "Manhattan, NY 10003"]}, "phone": "+12125332245", "display_phone": "(212) 533-2245", "distance": 1138.6084082018951}, {"id": "j18_IH_wTXJfEF5S8i0uEA", "alias": "indian-bollywood-drama-peck-slip-2", "name": "Indian Bollywood Drama", "image_url": "", "is_closed": false, "url": "https://www.yelp.com/biz/indian-bollywood-drama-peck-slip-2?adjust_creative=mOPdvnzKepQ7kZcAAeJlhA&utm_campaign=yelp_api_v3&utm_medium=api_v3_business_search&utm_source=mOPdvnzKepQ7kZcAAeJlhA", "review_count": 3, "categories": [{"alias": "indpak", "title": "Indian"}], "rating": 2.5, "coordinates": {"latitude": 40.709194, "longitude": -74.005911}, "transactions": ["delivery", "pickup"], "location": {"address1": "88 Fulton St", "address2": null, "address3": "", "city": "PECK SLIP", "zip_code": "10038", "country": "US", "state": "NY", "display_address": ["88 Fulton St", "PECK SLIP, NY 10038"]}, "phone": "", "display_phone": "", "distance": 1904.9236066980209}, {"id": "2l6f0IXKZkxyq0L4EaoaFQ", "alias": "the-butchers-daughter-new-york", "name": "The Butcher's Daughter", "image_url": "https://s3-media3.fl.yelpcdn.com/bphoto/eaU9FrGD1EgoiK6p0cAXlg/o.jpg", "is_closed": false, "url": "https://www.yelp.com/biz/the-butchers-daughter-new-york?adjust_creative=mOPdvnzKepQ7kZcAAeJlhA&utm_campaign=yelp_api_v3&utm_medium=api_v3_business_search&utm_source=mOPdvnzKepQ7kZcAAeJlhA", "review_count": 1341, "categories": [{"alias": "juicebars", "title": "Juice Bars & Smoothies"}, {"alias": "vegetarian", "title": "Vegetarian"}, {"alias": "breakfast_brunch", "title": "Breakfast & Brunch"}], "rating": 3.5, "coordinates": {"latitude": 40.720706862742, "longitude": -73.9948451276474}, "transactions": ["delivery", "pickup"], "price": "$$", "location": {"address1": "19 Kenmare St", "address2": "", "address3": "", "city": "New York", "zip_code": "10012", "country": "US", "state": "NY", "display_address": ["19 Kenmare St", "New York, NY 10012"]}, "phone": "+12122193434", "display_phone": "(212) 219-3434", "distance": 906.3400628919579}, {"id": "LpQIn07liSugCw3IIQNyvA", "alias": "mela-on-the-sixth-manhattan", "name": "Mela on the Sixth", "image_url": "", "is_closed": false, "url": "https://www.yelp.com/biz/mela-on-the-sixth-manhattan?adjust_creative=mOPdvnzKepQ7kZcAAeJlhA&utm_campaign=yelp_api_v3&utm_medium=api_v3_business_search&utm_source=mOPdvnzKepQ7kZcAAeJlhA", "review_count": 4, "categories": [{"alias": "indpak", "title": "Indian"}], "rating": 2.0, "coordinates": {"latitude": 40.72677, "longitude": -73.98761}, "transactions": [], "location": {"address1": "320 E 6th St", "address2": "", "address3": "", "city": "Manhattan", "zip_code": "10003", "country": "US", "state": "NY", "display_address": ["320 E 6th St", "Manhattan, NY 10003"]}, "phone": "+12122608229", "display_phone": "(212) 260-8229", "distance": 1147.0141504998335}, {"id": "WBJLoLeRSSzRDrzOv5IRng", "alias": "sonali-indian-restaurant-new-york", "name": "Sonali Indian Restaurant", "image_url": "https://s3-media3.fl.yelpcdn.com/bphoto/0_OtiRsZYylcSIkIoSw5FA/o.jpg", "is_closed": false, "url": "https://www.yelp.com/biz/sonali-indian-restaurant-new-york?adjust_creative=mOPdvnzKepQ7kZcAAeJlhA&utm_campaign=yelp_api_v3&utm_medium=api_v3_business_search&utm_source=mOPdvnzKepQ7kZcAAeJlhA", "review_count": 3, "categories": [{"alias": "indpak", "title": "Indian"}], "rating": 2.5, "coordinates": {"latitude": 40.7266693115234, "longitude": -73.9873733520508}, "transactions": [], "location": {"address1": "326 E 6th St", "address2": "", "address3": "", "city": "New York", "zip_code": "10003", "country": "US", "state": "NY", "display_address": ["326 E 6th St", "New York, NY 10003"]}, "phone": "+12125057517", "display_phone": "(212) 505-7517", "distance": 1133.7738540516837}, {"id": "g8i7ZoTri1fUGkaIM6fP9A", "alias": "souen-new-york-2", "name": "Souen", "image_url": "https://s3-media4.fl.yelpcdn.com/bphoto/X9GuhtCI3EjrAhB0w3hjOQ/o.jpg", "is_closed": false, "url": "https://www.yelp.com/biz/souen-new-york-2?adjust_creative=mOPdvnzKepQ7kZcAAeJlhA&utm_campaign=yelp_api_v3&utm_medium=api_v3_business_search&utm_source=mOPdvnzKepQ7kZcAAeJlhA", "review_count": 350, "categories": [{"alias": "japanese", "title": "Japanese"}, {"alias": "vegan", "title": "Vegan"}], "rating": 3.5, "coordinates": {"latitude": 40.7266693115234, "longitude": -73.9873733520508}, "transactions": ["delivery", "pickup"], "price": "$$", "location": {"address1": "326 E 6th St", "address2": "", "address3": "", "city": "New York", "zip_code": "10003", "country": "US", "state": "NY", "display_address": ["326 E 6th St", "New York, NY 10003"]}, "phone": "+12123881155", "display_phone": "(212) 388-1155", "distance": 1133.7084444165957}, {"id": "rPqY0-3Ij3KMLEFvB730vw", "alias": "parantha-alley-new-york-2", "name": "Parantha Alley", "image_url": "https://s3-media3.fl.yelpcdn.com/bphoto/T_Yv_wknbtXLIDPxoc1LMA/o.jpg", "is_closed": false, "url": "https://www.yelp.com/biz/parantha-alley-new-york-2?adjust_creative=mOPdvnzKepQ7kZcAAeJlhA&utm_campaign=yelp_api_v3&utm_medium=api_v3_business_search&utm_source=mOPdvnzKepQ7kZcAAeJlhA", "review_count": 1, "categories": [{"alias": "indpak", "title": "Indian"}, {"alias": "foodstands", "title": "Food Stands"}], "rating": 1.0, "coordinates": {"latitude": 40.72664, "longitude": -73.99202}, "transactions": [], "location": {"address1": "348 Bowery", "address2": null, "address3": "", "city": "New York", "zip_code": "10012", "country": "US", "state": "NY", "display_address": ["348 Bowery", "New York, NY 10012"]}, "phone": "+12124750850", "display_phone": "(212) 475-0850", "distance": 1237.8208676825661}, {"id": "pzVUUB9bXZMK8KvRLOoUWg", "alias": "kiran-continental-indian-cuisine-new-york", "name": "Kiran Continental Indian Cuisine", "image_url": "", "is_closed": false, "url": "https://www.yelp.com/biz/kiran-continental-indian-cuisine-new-york?adjust_creative=mOPdvnzKepQ7kZcAAeJlhA&utm_campaign=yelp_api_v3&utm_medium=api_v3_business_search&utm_source=mOPdvnzKepQ7kZcAAeJlhA", "review_count": 1, "categories": [{"alias": "indpak", "title": "Indian"}], "rating": 3.0, "coordinates": {"latitude": 40.71463, "longitude": -74.00752}, "transactions": ["delivery", "pickup"], "price": "$$", "location": {"address1": "94 Chambers St", "address2": "", "address3": "", "city": "New York", "zip_code": "10007", "country": "US", "state": "NY", "display_address": ["94 Chambers St", "New York, NY 10007"]}, "phone": "+12127324893", "display_phone": "(212) 732-4893", "distance": 1868.2795535057326}, {"id": "0jqs32xyAioVbz7BBzrO6A", "alias": "chinese-dhaba-new-york", "name": "Chinese Dhaba", "image_url": "", "is_closed": false, "url": "https://www.yelp.com/biz/chinese-dhaba-new-york?adjust_creative=mOPdvnzKepQ7kZcAAeJlhA&utm_campaign=yelp_api_v3&utm_medium=api_v3_business_search&utm_source=mOPdvnzKepQ7kZcAAeJlhA", "review_count": 3, "categories": [{"alias": "indpak", "title": "Indian"}, {"alias": "chinese", "title": "Chinese"}], "rating": 2.0, "coordinates": {"latitude": 40.71469, "longitude": -74.00768}, "transactions": ["delivery", "pickup"], "location": {"address1": "98 Chambers St", "address2": null, "address3": "", "city": "New York", "zip_code": "10007", "country": "US", "state": "NY", "display_address": ["98 Chambers St", "New York, NY 10007"]}, "phone": "+19292658135", "display_phone": "(929) 265-8135", "distance": 1887.5622196651573}]